idCiudad,FK_idEstado,Nombre,Latitud,Longitud
10,122,"Mobile",30.6871,-88.096
277,127,"Eagle",39.602,-106.765
429,135,"Macomb",40.4584,-90.6706
616,145,"Redwood Falls",44.4995,-95.1064
687,149,"Burwell",41.9224,-98.9816
1153,172,"Burlington",44.4805,-73.2168
1154,172,"Montpelier",44.2731,-72.5881
1155,172,"Newport",44.9201,-72.2004
1156,172,"Rutland",43.6238,-72.9553
1157,172,"Saint Johnsbury",44.4161,-71.9767
1158,172,"Wilmington",42.883,-72.8981
1163,76,"Ulaangom",49.967,92.033
1165,8,"Rio Branco",-8.233,-73.217
1166,1219,"Bel",-1.45,-48.483
1171,49,"Denpasar",-8.65,115.217
1172,10,"Macap",0.033,-51.05
1173,11,"Salvador",-12.983,-38.517
1175,13,"Teresina",-5.083,-42.817
1180,166,"Salt Lake City",40.7382,-111.881
1181,15,"Foz do Igua",-25.55,-54.5833
1182,35,"Montreal",45.5,-73.583
1185,3544,"Ulan-Ude",51.833,107.617
1189,3608,"Izhevsk",56.85,53.233
1190,3617,"Birobidzhan",48.8,132.95
1191,56,"Hermosillo",29.067,-110.967
1193,2891,"Tepic",21.517,-104.883
1196,2738,"Ondorhaan",47.317,110.65
1197,80,"Choibalsan",48.433,114.867
1201,16,"Macei",-9.667,-35.717
1202,17,"Jo",-7.1167,-34.8667
1203,18,"Boa Vista",-21.133,-41.567
1204,19,"Aracaju",-10.917,-37.067
1205,36,"Edmonton",53.55,-113.5
1206,37,"Toronto",43.667,-79.417
1211,59,"Guadalajara",20.667,-103.333
1212,60,"Pachuca",20.117,-98.733
1213,61,"Cuernavaca",18.917,-99.25
1214,62,"Tuxtla Gutierrez",16.75,-93.117
1215,63,"Villahermosa",17.983,-92.917
1216,2896,"Merida",24.55,-98.917
1217,81,"Moron",49.645,100.154
1218,82,"Suhbaatar",50.231,106.208
1221,133,"Honolulu",21.3084,-157.846
1222,138,"Kansas City",39.1108,-94.677
1225,1,"Melbourne",-37.817,144.967
1226,2,"Hobart",-42.917,147.333
1227,20,"Man",-3.113,-60.025
1228,21,"S",-2.517,-44.267
1229,22,"Porto Velho",-9.6,-64.883
1230,38,"Winnipeg",49.883,-97.167
1231,105,"Makhachkala",42.975,47.502
1232,106,"Yoshkar-Ola",56.637,47.871
1235,2160,"Ujung Pandang",-5.1167,119.4
1236,2887,"Saltillo",20.317,-98.267
1237,66,"Acapulco",16.85,-99.917
1238,2729,"Tsetserleg",49.5,97.6
1242,131,"Miami",25.7652,-80.273
1249,1220,"Recife",-8.05,-34.9
1250,24,"S",-23.533,-46.617
1251,25,"Palmas",-10.421,-48.436
1253,110,"Kazan",55.75,49.133
1254,2893,"Queretaro",32.55,-115.15
1255,2890,"Morelia",22.483,-102.383
1265,149,"Omaha",41.2166,-96.065
1267,158,"Oklahoma City",35.4131,-97.5141
1268,3,"Brisbane",-27.4683,153.024
1275,69,"Monterrey",25.667,-100.317
1276,70,"Ciudad Victoria",23.733,-99.133
1277,71,"Leon",21.117,-101.667
1278,2737,"Altai",44.917,95.417
1283,26,"Cuiab",-15.583,-56.083
1284,39,"Halifax",44.65,-63.6
1285,2731,"Olgii",49.033,92.033
1288,152,"Newark",40.734,-74.1852
1291,27,"Belo Horizonte",-19.917,-43.933
1292,40,"Regina",50.45,-104.617
1293,41,"St. John's",47.57,-52.73
1295,72,"Chetumal",18.5,-88.3
1298,42,"Fredericton",45.95,-66.633
1303,161,"Newport",41.4796,-71.3204
1306,28,"Vit",-20.317,-40.35
1307,29,"Rio de Janeiro",-22.9,-43.233
1308,30,"Florian",-27.583,-48.567
1311,4,"Sydney",-33.883,151.217
1312,5,"Adelaide",-34.933,138.6
1314,2151,"Pontianak",-0.033,109.333
1315,2154,"Samarinda",-0.5,117.15
1316,73,"Mexicali",32.667,-115.483
1317,155,"Raleigh",35.8003,-78.6412
1319,1217,"Bras",-15.783,-47.917
1320,43,"Vancouver",49.25,-123.133
1323,6,"Perth",-31.933,115.833
1324,32,"Porto Alegre",-30.033,-51.2
1327,7,"Darwin",-12.467,130.833
1328,33,"Campo Grande",-20.45,-54.617
1329,34,"Natal",-5.783,-35.217
1331,74,"La Paz",24.167,-110.3
1332,45,"Charlottetown",46.233,-63.133
1333,46,"Yellowknife",62.45,-114.35
1336,174,"Canberra",-35.283,149.217
1342,193,"Bulgan",47.317,101.1
1343,194,"Hovd",48.017,91.633
1344,2886,"Campeche",19.85,-90.533
1345,196,"Chihuahua",28.633,-106.083
1346,197,"Colima",19.233,-103.717
1347,198,"Durango",24.033,-104.667
1348,2889,"Estado De Mexico",18.017,-90.867
1350,201,"Oaxaca",32.333,-115.2
1353,204,"Tlaxcala",19.317,-98.233
1355,206,"Zacatecas",22.783,-102.583
1362,3546,"Chelyabinsk",55.167,61.4
1364,3548,"Chukchi",64.75,177.483
1367,3552,"Irkutsk",52.267,104.333
1368,3553,"Ivanovo",55.483,54.833
1371,3561,"Kemerovo",55.333,86.083
1384,3578,"Moscow",55.75,37.583
1386,3582,"Novgorod",42.65,130.803
1387,3583,"Novosibirsk",55.033,82.917
1388,3584,"Omsk",55,73.4
1390,3585,"Orenburg",51.783,55.05
1392,3588,"Perm'",58,56.25
1396,3596,"Saint Petersburg",59.894,30.264
1398,3597,"Saratov",53.117,54.867
1400,3599,"Smolensk",54.782,32.04
1402,3602,"Tambov",52.732,41.434
1410,3612,"Volgograd",48.805,44.586
1416,1322,"Kinsasa",1.977,14.776
3332,1192,"Moulmein",16.5,97.633
3333,1018,"Gyumri",40.7916,43.83
3334,1018,"Spitak",40.7955,44.27
3335,1017,"Vanadzor",40.8,44.49
3336,1022,"Yerevan",40.1833,44.5
3338,1051,"Bahia Blanca",-38.717,-62.283
3340,1055,"Cordoba",-31.4,-64.183
3341,1058,"Crespo",-32.033,-60.317
3342,1066,"General Roca",-39.05,-67.533
3343,1051,"La Plata",-34.931,-57.949
3344,1063,"Luj",-33.05,-68.867
3345,1065,"Neuquen",-38.95,-68.067
3346,1058,"Paran",-31.733,-60.533
3347,1051,"Pinamar",-37.117,-56.833
3348,1070,"Rio Cuarto",-33.133,-64.35
3349,1051,"San Clemente del Tuy",-36.367,-56.717
3350,1074,"San Miguel de Tucuman",-26.817,-65.217
3351,1071,"Santa Fe",-31.633,-60.7
3352,1083,"Abtenau",47.55,13.35
3353,1080,"Graz",47.067,15.45
3354,1081,"Kitzbuhel",47.45,12.383
3355,1077,"Lilienfeld",48.017,15.633
3356,1078,"Linz",48.3,14.3
3357,1079,"Salzburg",47.8,13.033
3358,1081,"Solden",46.967,11
3361,1075,"Stegersbach",47.167,16.167
3362,1078,"Steyr",48.05,14.417
3364,4,"Albury",-36.083,146.917
3365,5,"Beachport",-37.5,140.017
3366,4,"Bega",-36.667,149.833
3367,1,"Berwick",-38.033,145.35
3368,3,"Blue Mountain",-21.583,149.033
3369,4,"Bowral",-34.467,150.417
3370,3,"Cairns",-16.917,145.767
3371,2,"Campbell Town",-41.917,147.5
3372,1,"Chelsea",-38.05,145.117
3374,3,"Cooktown",-15.467,145.25
3375,4,"Cootamundra",-34.65,148.033
3376,3,"Croydon",-18.217,142.233
3377,4,"Dubbo",-32.25,148.617
3378,5,"Elizabeth",-34.733,138.65
3379,3,"Gold Coast",-28,153.433
3380,4,"Goulburn",-34.75,149.717
3381,4,"Grafton",-29.683,152.933
3383,4,"Inverell",-29.783,151.117
3384,4,"Kempsey",-31.083,152.833
3386,4,"Lithgow",-33.483,150.15
3387,3,"Mackay",-21.15,149.2
3388,4,"Maitland",-32.733,151.55
3389,3,"Manly",-27.467,153.183
3390,1,"Mildura",-34.2,142.15
3391,5,"Millicent",-37.6,140.35
3392,1,"Moe",-38.167,146.267
3393,4,"Mona Vale",-33.667,151.3
3394,4,"Newcastle",-32.917,151.75
3395,4,"Orange",-33.283,149.1
3396,1,"Shepparton",-36.383,145.4
3397,4,"Srtoud",-32.4,151.967
3399,4,"Tamworth",-31.1,150.933
3400,4,"Wagga Wagga",-35.117,147.367
3401,4,"Warringa",-33.8,151.283
3402,4,"Wauchope",-31.45,152.733
3403,4,"Wyong",-33.283,151.35
3404,4,"Young",-34.317,148.3
3405,904,"Baku",40.39,49.86
3406,5051,"Brussels",50.833,4.333
3407,1131,"Charleroi",50.417,4.433
3408,1137,"Diksmuide",51.033,2.867
3409,5306,"Dilbeek",50.85,4.267
3410,1131,"Frameries",50.4,3.9
3411,5305,"Genappe",50.6,4.45
3412,1133,"Hasselt",50.933,5.333
3413,1137,"Kortrijk",50.833,3.267
3415,1129,"Malines",51.033,4.467
3416,1129,"Mechelen",51.033,4.467
3417,1135,"Namur",50.467,4.867
3418,1137,"Pittem",51,3.267
3419,5352,"Bousse",13.1,-3.383
3420,4486,"Ouahigouya",13.583,-2.417
3421,4477,"Yako",12.967,-2.267
3422,1244,"Plovdiv",42.15,24.75
3423,1246,"Sofia",42.683,23.317
3424,1247,"Varna",43.217,27.917
3426,1172,"Cochabamba",-17.383,-66.15
3428,1175,"Oruro",-17.983,-67.15
3429,1178,"Santa Cruz",-21.75,-65.317
3430,24,"",-22.483,-46.65
3431,27,"Barbacena",-21.233,-43.767
3432,24,"Campinas",-22.9,-47.083
3433,14,"Fortaleza",-3.317,-41.417
3434,1220,"Garanhuns",-8.9,-36.483
3435,11,"Itapetinga",-15.25,-40.25
3436,24,"Jundia",-23.45,-50.283
3437,15,"Londrina",-23.3,-51.15
3438,27,"Nepomuceno",-21.233,-45.25
3440,24,"S",-22.467,-47.767
3441,1116,"Gaborone",-24.667,25.917
3442,1207,"Minsk",53.9,27.567
3443,1208,"Molodechno",54.317,26.85
3444,1206,"Minsk",53.9,27.567
3445,1165,"Belize",17.483,-88.183
3446,1166,"Belmopan",17.25,-88.767
3447,1170,"Punta Gorda",16.1,-88.8
3448,1168,"Orange Walk",18.067,-88.55
3449,38,"Brandon",49.833,-99.95
3450,37,"Brockville",44.583,-75.683
3451,37,"Brussels",43.73,-81.25
3452,37,"Burlington",43.317,-79.8
3453,37,"Collingwood",44.5,-80.217
3454,43,"Courtenay",49.683,-125
3455,43,"Cranbrook",49.517,-115.767
3456,43,"Dawson Creek",55.767,-120.233
3457,37,"Georgina",44.25,-79.32
3459,35,"Granby",45.383,-72.733
3460,37,"Hamilton",43.25,-79.833
3461,43,"Kamloops",50.667,-120.333
3462,37,"Kingston",44.233,-76.483
3463,35,"La Salle",45.417,-73.65
3464,37,"Leamington",42.05,-82.583
3468,37,"Markham",43.867,-79.267
3469,42,"Moncton",46.083,-64.767
3470,37,"Orillia",44.6,-79.417
3473,37,"Owen Sound",44.567,-80.85
3474,37,"Peterborough",44.3,-78.333
3476,43,"Prince Rupert",54.317,-130.333
3477,35,"Quebec",46.8,-71.25
3479,37,"Sarnia",42.967,-82.4
3480,37,"Scarborough",43.75,-79.2
3483,42,"Saint John",45.267,-66.067
3484,37,"Stratford",43.367,-80.983
3486,37,"Thunder Bay",48.4,-89.233
3487,43,"Vernon",50.267,-119.267
3488,37,"Waterloo",43.467,-80.533
3489,37,"Wawa",48,-84.783
3492,37,"Woodstock",43.133,-80.75
3493,4029,"Bern",46.917,7.467
3494,4033,"Chur",46.85,9.5
3496,4033,"Davos",46.8128,9.8358
3497,4027,"Liestal",47.467,7.733
3498,4044,"Locarno",46.167,8.8
3499,4029,"Saas Fee",46.1083,7.9266
3500,4033,"Saint Moritz",46.4933,9.8217
3501,4035,"Sursee",47.167,8.1
3502,4039,"Winterthur",47.5,8.75
3503,2283,"Abidjan",5.317,-4.033
3504,1370,"La Serena",-29.908,-71.254
3506,1367,"Pucon",-39.267,-71.967
3507,1373,"Punta Arenas",-53.15,-70.917
3508,1375,"Santiago",-33.45,-70.667
3509,1368,"Talca",-30,-71.017
3510,1372,"Valdivia",-39.8,-73.233
3511,1364,"Valparaiso",-33.048,-71.601
3513,1386,"Douala",4.05,9.7
3514,1389,"Limbe",4.017,9.2
3515,1387,"Mankon Bamenda",5.933,10.167
3516,1342,"Baoding",18.766,109.202
3517,1348,"Beihai",21.483,109.1
3518,1353,"Beijing",39.9,116.413
3519,1353,"Changchun",26.733,120.05
3520,1341,"Changhua City",34.833,112.433
3521,1347,"Changhua",34.833,112.433
3522,1343,"Changsha",28.2,112.967
3523,1336,"Changshu",31.644,120.738
3524,1355,"Changzhi",36.054,113.04
3525,1358,"Chengdu",30.667,104.067
3529,1363,"Chongqing",29.55,106.532
3532,1350,"Dalian",38.917,121.65
3533,1349,"Dandong",26.979,108.909
3534,1342,"Dongying",40.817,117.367
3537,1361,"Foshan",23.033,113.117
3538,1339,"Fuzhou",26.083,119.3
3539,1361,"Guangzhou",23.117,113.25
3540,1348,"Guilin",25.283,110.283
3543,1334,"Hangzhou",30.255,120.169
3544,1340,"Harbin",45.75,126.65
3545,1333,"Hefei",31.864,117.281
3549,586,"Hsin Tien",0,0
3550,586,"Hsin-Chu County",0,0
3551,1357,"Hsin-Chu",34.383,109.05
3552,586,"Hsintien City",0,0
3553,1343,"Hua-Lien City",0,0
3554,586,"Hua-Lien County",0,0
3555,586,"I-Lan County",0,0
3556,1337,"Jilin",23.583,107.433
3557,1356,"Jinan",36.667,117
3558,1358,"Kaifeng",31.767,105.35
3559,1361,"Kaiping",22.383,112.683
3560,4273,"Kaohsiung County",22.633,120.35
3561,4273,"Kaohsiung Municipality",22.633,120.35
3562,586,"Keelung City",0,0
3563,1349,"Kunming",25.042,102.717
3565,1350,"Liaoyang",41.233,123.1
3566,1348,"Liuzhou",29.85,118.179
3567,586,"Luchou Township",0,0
3568,1341,"Luoyang",34.683,112.467
3569,586,"Miao-Li County",0,0
3570,586,"Mucha District",0,0
3571,1336,"Nanjing",32.062,118.778
3572,586,"Nantou County",0,0
3573,586,"Neipu Hsiang",0,0
3574,1334,"Ningbo",29.875,121.542
3575,586,"Pei-Kang Township",0,0
3576,1356,"Qingdao",36.081,120.344
3577,1342,"Qinhuangdao",39.933,119.617
3578,1339,"Quanzhou",24.9,118.583
3579,1356,"Qufu",35.588,116.982
3580,1334,"Quzhou",28.967,118.867
3581,1354,"Shanghai",31.109,121.368
3582,1350,"Shenyang",41.8,123.45
3583,1361,"Shenzhen",22.533,114.133
3584,1342,"Shijiazhuang",30.624,121.094
3585,586,"Shin Lin District",0,0
3586,1334,"Shiyan",29.09,121.388
3587,1336,"Suzhou",31.311,120.618
3588,586,"Taichung City",0,0
3589,586,"Tai-Nan City",0,0
3592,586,"Tamsui Township",0,0
3594,1359,"TIANJIN",39.133,117.2
3595,586,"Wuchi Town",0,0
3596,1344,"WUHAN",30.583,114.267
3597,1336,"WUXI",28.283,110.167
3598,1339,"XIAMEN",24.45,118.083
3599,1336,"YANGZHOU",32.387,119.435
3600,1356,"YANTAI",37.533,121.4
3601,1350,"YINGKOU",40.667,122.283
3602,1343,"YUEYANG",29.383,113.1
3603,586,"Yungho City",0,0
3604,1344,"YUSHU",32.113,112.887
3605,1341,"ZHENGZHOU",34.765,113.651
3606,1349,"ZHENJIANG",26.664,108.529
3607,1334,"ZHOUSHAN",30.02,122.098
3608,1361,"ZHUHAI",22.283,113.567
3609,1356,"ZIBO",36.8,118.05
3610,1358,"ZIGONG",29.4,104.783
3611,1401,"Armenia",7.139,-73.376
3612,1401,"Barranquilla",10.983,-74.8
3614,1419,"Bucaramanga",7.13,-73.124
3615,1422,"Cali",3.447,-76.516
3617,1398,"Cartagena",9.686,-73.262
3619,1403,"Honda",1.85,-76.817
3620,1421,"Ibague",4.437,-75.226
3621,1430,"Manizales",5.083,-75.5
3622,1399,"Medellin",6.25,-75.583
3623,1403,"Popayan",8.673,-76.202
3624,1431,"Santa Marta",3.051,-76.564
3625,1411,"Sincelejo",10.951,-72.707
3626,1414,"Tunja",8.19,-73.254
3627,1433,"Cartago",9.867,-83.917
3628,1434,"Ciudad Quesada",10.333,-84.433
3629,1438,"Escazu",9.917,-84.133
3630,1435,"Heredia",10,-84.117
3631,1437,"Jaco",9.617,-84.633
3632,1434,"Liberia",10.633,-85.433
3634,1438,"San Jose",9.933,-84.083
3635,1438,"San Ramon",9.417,-83.733
3636,1433,"Turrialba",9.9,-83.683
3637,1481,"Mindelo",16.883,-25
3638,1476,"Praia",14.917,-23.517
3639,5122,"Brno",49.2,16.633
3640,5125,"Karlovy Vary",50.217,12.9
3641,5129,"Krnov",49.7,17.2
3642,5128,"Olomouc",49.583,17.25
3643,1746,"Prague",50.083,14.467
3644,5130,"Zamberk",50.1,16.467
3645,1918,"Aachen",50.767,6.1
3646,1913,"Ansbach",49.3,10.583
3647,1926,"Apolda",51.017,11.5
3648,1913,"Augsburg",48.367,10.883
3649,1913,"Bad Koenigshofen",50.3,10.483
3650,1917,"Bad Zwischenahn",53.183,8
3651,1927,"Berlin",52.517,13.4
3652,1920,"Bexbach",49.333,7.267
3653,1917,"Billerbeck",51.833,9.983
3654,1919,"Bingen Am Rhein",49.967,7.9
3655,1916,"Braunfels",50.517,8.4
3656,1917,"Braunschweig",52.267,10.533
3657,1920,"Budingen",49.45,6.55
3658,1913,"Coburg",50.25,10.967
3659,1918,"Cologne",50.933,6.95
3660,1912,"Crailsheim",49.15,10.083
3661,1924,"Cranzahl",50.517,13
3662,1913,"Dorfen",47.767,12.2
3663,1918,"Dortmund",51.517,7.45
3664,1924,"Dresden",51.05,13.75
3665,1912,"Eberbach",49.469,8.993
3666,1913,"Eichstatt",48.633,12.1
3667,1926,"Eisenach",50.983,10.317
3668,1918,"Emmerich",51.833,6.25
3669,1926,"Erfurt",50.983,11.033
3670,1912,"Esslingen",48.75,9.3
3671,1921,"Eutin",54.133,10.617
3672,1912,"Freiburg Im Breisgau",48,7.85
3673,1912,"Friedrichshafen",47.65,9.483
3674,1912,"Friolzheim",48.833,8.833
3675,1913,"Fussen",47.567,10.7
3676,1917,"Garbsen",52.417,9.6
3679,1912,"Gedern",51.417,7.35
3680,1926,"Gera",50.867,12.083
3682,1921,"Gluckstadt",53.783,9.417
3683,1926,"Gotha",51.417,12.6
3684,1912,"Gottelfingen",48.5,8.75
3685,1923,"Greifswald",54.1,13.383
3686,1919,"Grunstadt",49.563,8.164
3687,1913,"Gunzenhausen",49.1,10.75
3688,1915,"Hamburg",53.55,10
3689,1918,"Hamm",51.25,6.417
3690,1917,"Helmstedt",52.233,11
3691,1918,"Herford",52.133,8.683
3692,1913,"Hof",50.233,11.2
3695,1919,"Kaiserslautern",49.45,7.75
3696,1918,"Kleve",51.783,6.15
3697,1919,"Koblenz",50.35,7.6
3698,1927,"Koenigs Wusterhausen",49.15,10.533
3699,1918,"Krefeld",51.333,6.567
3700,1913,"Kubelstein Stadt Schesslitz",49.983,11.133
3701,1919,"Kusel",49.55,7.4
3702,1912,"Leinfelden-Echterdingen",48.7,9.15
3703,1924,"Leipzig",51.3,12.333
3704,1918,"Lengerich",52.183,7.867
3705,1912,"Leonberg",49.95,12.283
3706,1913,"Lichtenfels",50.15,11.067
3707,1919,"Linz Am Rhein",50.567,7.283
3708,1921,"Lubeck",53.867,10.7
3709,1918,"Ludinghausen",51.767,7.467
3710,1919,"Ludwigshafen Am Rhein",49.478,8.447
3711,1925,"Lutherstadt Wittenberg",51.867,12.65
3712,1919,"Mainz",49.998,8.273
3713,1912,"Malsch",48.883,8.333
3714,1912,"Mannheim",49.488,8.465
3715,1912,"Marbach Am Neckar",48.933,9.25
3717,1918,"Marl",51.65,7.083
3718,1916,"Melsungen",51.133,9.55
3719,1913,"Memmingen",47.983,10.167
3720,1912,"Me",48.1799,8.9592
3721,1919,"Morzheim",49.168,8.076
3722,1913,"Munich",48.15,11.583
3723,1918,"Munster",51.967,7.633
3725,1913,"Neu Ulm",48.4,10.017
3727,1913,"Neustadt An Der Waldnaab",49.733,12.167
3728,1917,"Nienburg",52.633,9.217
3729,1912,"Ofterdingen",48.417,9.033
3730,1917,"Osnabruck",52.267,8.05
3731,1918,"Paderborn",51.717,8.767
3732,1913,"Passau",48.583,13.483
3733,1912,"Pfaffenweiler",47.783,9.867
3734,1921,"Pinneberg",53.65,9.8
3735,1918,"Porta Westfalica",52.217,8.933
3736,1922,"Potsdam",52.4,13.067
3737,1912,"Rastatt",48.85,8.2
3738,1918,"Ratingen",51.3,6.85
3739,1913,"Regensburg",49.017,12.1
3740,1922,"Rheinsberg",53.1,12.883
3741,1914,"Rodental",50.283,11.067
3742,1920,"Saarbrucken",49.233,7
3743,1919,"Schaumburg",50.333,7.983
3744,1919,"Schifferstadt",49.387,8.375
3745,1917,"Schledehausen",52.283,8.25
3746,1912,"Schwabisch Gmund",48.8,9.783
3747,1923,"Schwerin",53.633,11.383
3748,1912,"Schwieberdingen",48.883,9.067
3749,1917,"Seevetal",53.4,9.967
3750,1917,"Soltau",52.983,9.833
3752,1917,"Stade",53.6,9.483
3753,1912,"Stuttgart",48.767,9.183
3754,1912,"Sulzfeld",49.105,8.856
3755,1913,"Tirschenreuth",49.883,12.35
3756,1919,"Trier",49.75,6.633
3757,1912,"Trossingen",48.067,8.65
3758,1912,"Tubingen",48.533,9.05
3759,1912,"Ulm",48.733,8.017
3761,1912,"Walldorf",49.306,8.645
3762,1913,"WASSERBURG",48.433,10.267
3763,1926,"Weimar",51.367,9.4
3764,1918,"Wesel",51.667,6.617
3765,1912,"Wiernsheim",48.883,8.85
3766,1912,"Wiesloch",49.298,8.701
3767,1917,"Wilhelmshaven",53.517,8.133
3768,1912,"Winterlingen",48.183,9.117
3769,1917,"Wittmund",53.567,7.783
3770,1912,"Wolfach",48.3,8.217
3771,1917,"Wolfenbuttel",52.167,10.55
3772,1919,"Worms",49.636,8.36
3773,1913,"WURZBURG",49.797,9.949
3774,1924,"Zittau",50.9,14.833
3775,1919,"Zweibrucken",49.25,7.367
3776,1494,"Aalborg",57.05,9.933
3777,1489,"Ebeltoft",56.2,10.683
3778,1498,"Haderslev",55.25,9.5
3780,1492,"Odense",55.4,10.383
3781,1498,"Rodding",55.367,9.067
3782,1495,"Varde",55.633,8.483
3783,1529,"La Romana",19.067,-70.35
3784,1540,"Santiago",19.45,-70.7
3786,875,"Mascara",35.394,0.14
3787,1550,"Cuenca",-2.883,-78.983
3788,1551,"Guaranda",-1.6,-79
3789,1558,"Guayaquil",-2.167,-79.9
3790,1559,"Ibarra",0.35,-78.117
3791,1555,"Latacunga",-0.933,-78.617
3792,1565,"Quito",-0.217,-78.5
3793,1554,"Riobamba",-1.667,-78.633
3794,1565,"Santo Domingo De Los Colorados",-0.25,-79.15
3795,1636,"Parnu",58.375,24.514
3796,1640,"Tartu",58.366,26.736
3797,1593,"Alexandria",31.2,29.9
3798,1580,"Cairo",30.05,31.25
3799,1577,"Giza",30.003,31.176
3800,1580,"Heliopolis",30.1,31.333
3801,1592,"Luxor",25.683,32.65
3803,3910,"Aledo",37.8,-1.567
3804,3913,"Aviles",43.557,-5.925
3805,3935,"Balaguer",41.783,0.817
3806,3936,"Barcarrota",38.517,-6.85
3807,3935,"Barcelona",41.383,2.183
3808,3938,"Bilbao",43.25,-2.967
3810,3930,"Cadiz",36.534,-6.299
3811,3886,"Ciudadela",40.033,3.833
3812,3930,"El Puerto De Santa Maria",36.6,-6.233
3814,3913,"Gijon",43.541,-5.664
3815,3930,"Granada",37.183,-3.6
3816,3930,"Huelva",37.258,-6.951
3817,3932,"Las Palmas de Gran Canaria",28.1,-15.417
3818,3908,"Madrid",40.4,-3.683
3819,3930,"Malaga",36.717,-4.417
3820,3910,"Murcia",37.983,-1.117
3821,3913,"Oviedo",43.367,-5.833
3822,3886,"Palma de Mallorca",39.567,2.65
3823,3886,"Petra",39.617,3.1
3826,3930,"Santa Fe",36.967,-2.533
3828,3930,"Sevilla ",37.377,-5.987
3829,3933,"Toledo",39.867,-4.017
3830,3908,"Tres Cantos",40.6077,-3.7067
3831,3910,"Yecla",38.617,-1.117
3832,1691,"Axum",14.133,38.717
3833,5023,"Alajarvi",63,23.817
3834,4879,"Heinola",61.217,26.033
3835,5023,"Jakobstad",63.667,22.7
3836,1779,"Jarvenpaa",65.633,27.417
3837,5023,"Kokkola",63.833,23.117
3838,5022,"Kuopio",62.9,27.683
3839,4879,"Lappeenranta",61.067,28.183
3840,5023,"Lapua",62.95,23
3841,4879,"Porvoo",60.4,25.667
3842,1777,"Rovaniemi",66.5,25.717
3843,1779,"Salo",65.2,29.283
3844,5023,"Seinajoki",62.8,22.833
3845,4879,"Tampere",61.5,23.75
3846,1784,"Nailuva",-17.6,178.117
3847,1813,"Albertville",45.683,6.383
3848,1807,"Albi",43.933,2.15
3849,1811,"Angouleme",45.65,0.15
3850,1812,"Antibes",43.583,7.117
3851,1793,"Arcachon",44.65,-1.167
3852,1804,"Arles",42.45,2.633
3853,1798,"Aubigny-sur-Nere",47.4892,2.4397
3854,1812,"Avignon",43.95,4.817
3855,1808,"Bar-sur-Loup",43.7022,6.9919
3856,1793,"Bayonne",43.483,-1.483
3857,1801,"Belfort",42.833,2.05
3858,1793,"Biarritz",43.483,-1.567
3859,1794,"Billom",45.717,3.35
3860,1793,"Bordeaux",44.833,-0.567
3861,1803,"Boulogne-Billancourt",48.833,2.25
3862,1797,"Brest",48.4,-4.483
3863,1796,"Bruyeres",47.8,3.467
3864,1795,"Caen",49.183,-0.35
3865,1808,"Calais",44.983,0.967
3866,1808,"Cambrai",50.167,3.233
3867,1812,"Cannes",43.55,7.017
3868,1812,"Cavaliere Sur Mer",43.1733,6.5325
3869,1803,"Cergy-Pontoise",49,2.033
3870,1796,"Chambolle-Musigny",47.1847,4.9495
3871,1808,"Chamonix",45.917,6.867
3872,1794,"Chavaniac",45.15,3.583
3873,1794,"Clermont-Ferrand",45.783,3.083
3874,1809,"Coex",46.683,-1.767
3875,1805,"Cognac",45.833,1
3876,1814,"Colmar",48.083,7.367
3877,1810,"Compiegne",49.417,2.833
3878,1813,"Courchevel",45.417,6.65
3879,1795,"Deauville",49.367,0.067
3880,1796,"Dijon",47.317,5.017
3881,1808,"Douai",50.367,3.067
3883,1814,"Eguisheim",48.05,7.3
3884,1796,"Entrains-Sur-Nohain",47.45,3.25
3885,1808,"Fourmies",50,4.05
3886,1812,"Frejus",44.933,6.533
3887,1814,"Geispolsheim",48.515,7.6492
3888,1813,"Grenoble",45.167,5.717
3889,1814,"Henin-Beaumont",50.417,2.933
3890,1812,"La Garde-Freinet",43.3181,6.4703
3891,1811,"La Rochelle",48.767,-1.433
3892,1793,"La Teste",44.633,-1.15
3893,1794,"La Vergne",45.05,2.383
3894,1813,"La Verpilliere",45.633,5.15
3895,1794,"Langeac",45.1,3.483
3896,1812,"Le Cannet",43.4,6.35
3897,1802,"Le Havre",49.5,0.133
3898,1810,"Le Toquet",50.1,1.8
3899,1803,"Le Vesinet",48.9,2.117
3900,1803,"Le Bourget",48.9344,2.4253
3901,1805,"Limoges",45.85,1.25
3902,1796,"Longvic",47.283,5.067
3903,1798,"Luray",48.717,1.4
3905,1796,"Macon",46.3,4.833
3906,1808,"Marcq-En-Baroeul",50.667,3.083
3907,1806,"Metz",49.133,6.167
3908,1793,"Mimizan",44.2,-1.233
3909,1801,"Montbeliard",47.517,6.8
3910,1812,"Montelimar",44.567,4.75
3911,1803,"Montgeron",48.7,2.45
3912,1804,"Montpellier",43.6,3.883
3913,1806,"Nancy",48.683,6.2
3914,1809,"Nantes",47.217,-1.55
3915,1803,"Neuilly-Plaisance",48.867,2.517
3916,1812,"Nice",43.7,7.25
3918,1812,"Orange",44.133,4.8
3919,1798,"Orleans",47.917,1.9
3920,1793,"Pau",43.3,-0.367
3921,1795,"Peronne",50.567,3.167
3922,1804,"Perpignan",42.683,2.883
3923,1797,"Pontivy",48.067,-2.983
3924,1797,"Rennes",48.083,-1.683
3925,1806,"Rombas",49.25,6.083
3926,1798,"Romorantin",47.367,1.75
3927,1806,"Saint Avold",49.1,6.7167
3928,1813,"Saint Etienne",45.25,4.783
3929,1803,"Saint Mande",48.8453,2.4147
3930,1807,"Saint-Clar",43.467,1.217
3932,1798,"Senonches",48.55,1.033
3933,1803,"Saint Cloud",48.8436,2.2197
3934,1798,"Saint Cyr Sur Loire",47.4,0.6667
3935,1798,"Saint-Germain-en-Laye",48.8989,2.0944
3936,1814,"Strasbourg",48.583,7.75
3937,1811,"Toulon",46.483,0.633
3938,1807,"Toulouse",43.6,1.433
3939,1798,"Tours",45.667,3.583
3940,1811,"Vendome",46.175,-1.158
3941,1796,"Vichy",46.117,3.417
3942,1803,"Vincennes",48.85,2.433
3943,1811,"Vitre",46.283,-0.2
3944,1833,"Bat'umi",41.6333,41.6333
3945,5327,"Mtskheta",41.85,44.7167
3946,5329,"P'ot'I",42.15,41.6667
3947,1879,"Tbilisi",41.7001,44.8085
3948,5324,"T'elavi",41.9167,45.4667
3949,1893,"Accra",5.55,-0.217
3950,1901,"Bolgatanga",10.783,-0.85
3951,1896,"Cape Coast",5.1,-1.25
3952,1901,"Ga District",9.817,-0.45
3953,1894,"Kumasi",4.85,-2.083
3954,1897,"Oyoko",6.133,-0.283
3956,1898,"Tamale",9.4,-0.833
3957,1893,"Tema",5.617,-0.017
3958,1815,"Banjul",13.45,-16.577
3959,1819,"Kanifing",13.446,-16.675
3960,2004,"Conakry",9.511,-13.714
3961,635,"Lamentin",16.26,-61.61
3963,1962,"Athens",37.983,23.733
3964,1964,"Corinth",37.933,22.933
3965,1940,"Kalamaria",40.583,22.967
3966,1938,"Kozani",40.2919,21.7889
3967,1951,"Lamia",38.9,22.433
3969,1963,"Navplion",37.567,22.8
3970,1965,"Patras",38.25,21.733
3971,1962,"Piraeus",37.95,23.633
3972,1940,"Thessaloniki",40.633,22.933
3973,1949,"Trikala",38,22.467
3974,1933,"Tripolis",37.517,22.367
3975,1955,"Zakinthos",37.783,20.9
3976,1991,"Antigua",14.567,-90.733
3977,1992,"Chichicastenango",14.933,-91.117
3978,2000,"Coban",14.75,-89.767
3979,1996,"Cuilapa",14.283,-90.3
3980,1984,"Escuintla",14.3,-90.783
3982,1988,"Jalapa",14.633,-89.983
3983,1989,"Jutiapa",14.283,-89.9
3984,1987,"PUERTO BARRIOS",15.717,-88.6
3985,1991,"Quezaltenango",14.833,-91.517
3986,1985,"SAN JUAN SACATEPEQUEZ",14.717,-90.65
3987,1992,"SANTA CRUZ DEL QUICHE",15.031,-91.149
3989,1997,"SOLOLA",14.767,-91.183
3990,2000,"ZACAPA",14.967,-89.533
3991,2032,"Georgetown",6.8,-58.167
3992,2063,"Juticalpa",14.65,-86.2
3993,2056,"TEGUCIGALPA",14.1,-87.217
3994,5039,"Karlovac",45.7,18.1
3995,5039,"Komiza",43.043,16.093
3996,5039,"Split",43.514,16.456
3997,5045,"Zagreb",45.8,16
3998,2048,"Jacmel",18.235,-72.537
3999,2046,"PETIT GOAVE",18.433,-72.867
4000,2046,"PORT-AU-PRINCE",18.533,-72.333
4001,2071,"Budapest",47.5,19.083
4002,2076,"Debrecen",47.533,21.633
4003,2086,"Jaszbereny",47.5,19.917
4004,2068,"Pecs",46.083,18.233
4005,2083,"Siofok",46.9,18.05
4006,2072,"Szeged",46.25,20.167
4007,2074,"Szekesfehervar",47.2908,18.3264
4008,2086,"Szolnok",47.183,20.2
4009,2147,"Bandung",-8.167,111.783
4010,2145,"Jakarta",-6.167,106.8
4011,2149,"Surabaya",-7.25,112.75
4013,1599,"Cork",51.899,-8.496
4015,1601,"Dublin",53.333,-6.25
4016,1598,"Ennis",52.844,-8.986
4017,1600,"Enniscorthy",52.501,-6.558
4018,1602,"Galway",53.272,-9.049
4019,1603,"Killarney",52.0597,-9.4958
4020,1608,"Limerick",52.665,-8.623
4021,1603,"Listowel",52.446,-9.485
4022,1599,"Longford",53.126,-7.492
4023,1620,"New Ross",52.397,-6.937
4025,1616,"Sligo",54.267,-8.483
4026,1603,"Tralee",52.267,-9.717
4027,1618,"Waterford",52.258,-7.112
4028,2234,"Afula",32.611,35.292
4029,2234,"Akko",32.924,35.073
4034,2235,"Bethshemesh",32.729,35.171
4035,2232,"Eilat",29.55,34.95
4036,2236,"Givatayim",32.07,34.812
4037,2235,"Haifa",32.816,34.989
4038,2235,"Hatzor",31.767,34.717
4039,2236,"Herzliyya",32.166,34.837
4041,2234,"Karmi'el",32.917,35.304
4044,2236,"Kiryat Ekron",32.042,34.778
4045,2235,"Kiryat Motzkin",32.042,34.778
4046,2233,"Petah Tiqva",32.089,34.872
4047,2233,"Raanana",32.181,34.867
4048,2236,"Ramat Gan",32.081,34.814
4049,2236,"Ramat Hasharon",32.147,34.842
4050,2233,"Rehovot",31.897,34.819
4051,2236,"Rishon Le Zion",31.964,34.804
4052,2234,"Safed",32.967,35.494
4054,2235,"Tiberias",32.796,35.529
4055,2237,"Yavne",31.867,34.75
4056,2233,"Yehud",32.035,34.886
4057,2232,"Yeroham",31,34.917
4058,2185,"Bangalore",12.983,77.583
4060,2190,"Jaipur",26.9021,75.8227
4062,2182,"Pune",18.5201,73.8516
4063,2191,"Salem",11.6469,78.1414
4064,2177,"Simla",31.1,77.167
4065,2169,"Vijayawada",16.5123,80.6335
4066,2223,"Tehran",35.672,51.424
4068,2129,"Reykjav",64.15,-21.95
4069,2252,"Agrigento",37.317,13.567
4070,2249,"Alba",44.7,8.033
4071,2241,"Amalfi",40.633,14.6
4072,2255,"Assisi",43.067,12.617
4074,2249,"Asti",44.9,8.2
4075,2246,"Bergamo",45.683,9.717
4076,2242,"Bologna",44.483,11.333
4077,2252,"Caltanissetta",37.483,14.067
4078,2246,"Cantu",45.733,9.133
4079,2250,"Capurso",41.05,16.917
4081,2244,"Cisterna",41.583,12.817
4082,2240,"Cosenza",39.3,16.25
4083,2246,"Cremona",45.117,10.033
4085,2242,"Ferrara",44.833,11.583
4086,2253,"Fiesole",43.8,11.283
4088,2253,"Florence",43.767,11.25
4089,2252,"Floridia",37.083,15.15
4090,2241,"Gaeta",41.2,13.583
4091,2245,"Genoa",44.417,8.95
4092,2253,"Greve",43.583,11.317
4094,2245,"Imperia",43.883,8.05
4095,2249,"Ivrea",45.467,7.867
4096,2245,"La Spezia",44.117,9.833
4097,2246,"Lodi",45.317,9.5
4098,2246,"Lonate Pozzolo",45.6,8.75
4099,2253,"Lucca",43.833,10.483
4100,2244,"Marino",41.767,12.65
4102,2252,"Milazzo",38.217,15.233
4103,2242,"Modena",44.667,10.917
4105,2246,"Monza",45.583,9.267
4106,2242,"Noceto",44.8,10.183
4107,2251,"Oristano",39.9,8.6
4109,2240,"Paterno",39.233,16.25
4110,2257,"Pedavena",46.033,11.883
4111,2255,"Perugia",43.133,12.367
4112,2238,"Pescara",42.467,14.217
4114,2249,"Pinerolo",44.883,7.35
4115,2253,"Pisa",43.717,10.383
4116,2239,"Potenza",40.633,15.8
4117,2250,"Putignano",40.85,17.117
4118,2242,"Reggio Emilia",44.7,10.6333
4119,2252,"Ribera",37.5,13.267
4120,2242,"Rimini",44.063,12.581
4121,2244,"Rome",41.9,12.483
4122,2247,"San Benedetto Del Tronto",42.95,13.883
4123,2245,"Sestri Levante",44.267,9.4
4124,2241,"Sorrento",40.617,14.367
4125,2255,"Spoleto",42.733,12.733
4126,2252,"Terrasini",38.15,13.083
4127,2249,"Torre Pellice",44.817,7.217
4128,2244,"Viterbo",42.417,12.1
4130,2381,"Montego Bay",18.467,-77.917
4131,2383,"Morant Bay",17.883,-76.417
4132,2378,"Ocho Rios",18.417,-77.117
4134,2391,"Amman",31.95,35.933
4135,2387,"Madaba",31.717,35.8
4136,2338,"Akashi",34.633,134.983
4137,2326,"Anjo",34.95,137.083
4138,2358,"Arita",33.183,129.9
4140,2337,"Asahikawa",43.767,142.367
4141,2363,"Ashikaga",36.333,139.45
4142,2338,"Ashiya",34.733,135.317
4143,2335,"Aso",35.717,136.1
4144,2344,"Atsugi",35.45,139.367
4146,2328,"Beppu",35.1,132.533
4147,2329,"Chiba",35.6,140.117
4148,2359,"Chichibu",35.983,139.083
4149,2351,"Chino",36.0114,138.246
4150,2337,"Chitose",42.817,141.65
4151,2329,"Choshi",35.733,140.833
4153,2337,"Ebetsu",43.117,141.567
4154,2362,"Fuji",43.817,144.783
4155,2362,"Fujinomiya",35.217,138.617
4156,2344,"Fujisawa",35.35,139.483
4157,2339,"Fujishiro",35.917,140.117
4161,2331,"Fukui",36.067,136.217
4162,2332,"Fukuoka",33.583,130.4
4163,2329,"Futtsu",35.317,139.817
4164,2334,"Gifu",35.417,136.75
4165,2362,"Gotemba",35.3,138.933
4167,2344,"Hadano",35.367,139.233
4168,2341,"Hanamaki",39.383,141.117
4169,2326,"Handa",34.033,134.033
4170,2359,"Hanno",35.85,139.317
4171,2368,"Hashimoto",34.317,135.617
4172,2326,"Hekinan",34.883,136.983
4173,2365,"Higashimurayama",35.75,139.467
4174,2357,"Higashiosaka",34.667,135.583
4175,2360,"Hikone",35.25,136.25
4176,2338,"Himeji",34.817,134.7
4177,2365,"Hino",35.683,139.4
4178,2372,"Hirara",24.8,125.283
4179,2344,"Hiratsuka",35.317,139.35
4180,2336,"Hiroshima",34.4,132.45
4182,2339,"Hitachi",36.633,140.6
4184,2346,"Hondo",32.45,130.2
4187,2329,"Ichihara",35.517,140.083
4188,2329,"Ichikawa",40.583,141.45
4189,2371,"Ichikawadaimon",35.567,138.5
4190,2329,"Ikata",34.217,133.067
4191,2362,"Ikawa",35.217,138.25
4192,2330,"Imabari",34.083,133.017
4193,2361,"Imaichi",35.367,132.767
4194,2336,"Imazu",34.167,132.217
4195,2352,"Isahaya",32.833,130.05
4197,2335,"Isesaki",36.317,139.2
4198,2328,"Itayanagi",40.7,140.45
4199,2348,"Iwai",34.3,136.233
4200,2333,"Iwaki",38.3,140.933
4201,2336,"Iwakuni",34.15,132.183
4202,2337,"Iwamizawa",43.2,141.767
4203,2349,"Iwanuma",38.1,140.867
4204,2362,"Iwata",34.7,136.5
4205,2368,"Izumo",33.467,135.8
4206,2343,"Kagoshima",31.6,130.55
4207,2338,"Kaibara",35.133,135.083
4208,2357,"Kaizuka",34.45,135.35
4209,2362,"Kakegawa",34.767,138.017
4212,2347,"Kameoka",35,135.583
4214,2334,"Kanayama",33.467,131.5
4215,2340,"Kanazawa",36.567,136.65
4218,2329,"Kashiwa",32.783,128.667
4219,2326,"Kasugai",35.233,136.983
4220,2359,"Kawagoe",35.917,139.483
4221,2338,"Kawanishi",34.817,135.417
4222,2344,"Kawasaki",38.167,140.633
4223,2365,"Kijima",36.85,138.383
4224,2335,"Kiryu",36.4,139.333
4225,2329,"Kisarazu",35.383,139.917
4226,2349,"Kishiwada",34.467,135.367
4227,2336,"Kitakami",38.575,141.45
4228,2332,"Kitakyushu",33.833,130.833
4229,2337,"Kitami",43.8,143.9
4230,2338,"Kobe",34.683,135.167
4231,2345,"Kochi",34.467,132.883
4232,2371,"Kofu",34.85,136.5
4234,2326,"Komaki",35.283,136.917
4236,2343,"Kuji",28.233,129.25
4237,2346,"Kumamoto",32.8,130.717
4238,2356,"Kurashiki",35,134.15
4239,2327,"Kure",33.333,133.233
4241,2328,"Kuroishi",40.633,140.6
4242,2332,"Kurume",33.317,130.517
4243,2360,"Kusatsu",35.017,135.967
4244,2343,"Kushikino",31.717,130.267
4245,2368,"Kushimoto",33.467,135.783
4246,2347,"Kyoto",35,135.75
4247,2360,"Makino",34.35,135.283
4248,2351,"Matsumoto",26.359,127.813
4249,2329,"Matsuto Shi",36.517,136.567
4250,2330,"Matsuyama",31.567,131.05
4251,2337,"Memuro",42.917,143.05
4254,2340,"Mikawa",42.717,143.267
4255,2338,"Miki",34.8,134.983
4256,2362,"Mikkabi",34.8,137.55
4258,2356,"Minori",34.867,133.7
4259,2328,"Misawa",42.75,141.717
4260,2345,"Mishima",33.75,133.55
4261,2339,"Mito",36.367,140.467
4262,2350,"Miyazaki",31.9,131.433
4263,2347,"Miyazu",35.533,135.183
4264,2337,"Mombetsu",42.45,142.067
4266,2330,"Moriyama",33.483,132.633
4267,2364,"Motoyama",42.983,141.05
4268,2347,"Muko",34.933,135.7
4269,2351,"Mure",36.75,138.233
4271,2355,"Nagano",32.9,131.933
4272,2335,"Naganohara",36.55,138.633
4273,2354,"Nagaoka",35.033,138.933
4275,2352,"Nagasaki",32.8,129.917
4276,2372,"Nago",26.591,127.983
4277,2326,"Nagoya",35.167,136.917
4278,2372,"Naha",26.212,127.678
4281,2329,"Narashino",35.683,140.033
4282,2365,"Narita",35.783,140.317
4283,2337,"Nemuro",43.333,145.583
4286,2354,"Niigata",37.917,139.05
4288,2371,"Nirasaki",35.7,138.45
4289,2338,"Nishinomiya",34.717,135.333
4290,2338,"Nishiwaki",34.683,134.95
4291,2350,"Nobeoka",32.583,131.667
4292,2327,"Noshiro",40.2,140.033
4293,2362,"Numazu",35.1,138.867
4294,2367,"Nyuzen",36.933,137.5
4295,2337,"Obihiro",42.917,143.2
4296,2344,"Odawara",35.25,139.167
4297,2360,"Ohara",35.117,135.833
4298,2362,"Ohito",34.983,138.933
4299,2344,"Oiso",35.3,139.317
4301,2351,"Okaya",36.05,138.05
4302,2356,"Okayama",34.65,133.917
4303,2326,"Okazaki",34.917,137.15
4305,2332,"Omuta",33.033,130.45
4306,2355,"Ono",34.933,136.233
4307,2357,"Osaka",34.667,135.5
4311,2365,"Ota",39.35,140.383
4312,2360,"Otsu",31.867,130.233
4314,2371,"Ryuo",35.65,138.5
4316,2359,"Sakado",35.95,139.4
4317,2337,"Sakai",45.3,141.05
4318,2338,"Sanda",34.883,135.233
4319,2337,"Sapporo",43.05,141.35
4320,2337,"Saroma",44.017,143.767
4321,2338,"Sasayama",35.067,135.217
4322,2352,"Sasebo",33.167,129.717
4323,2338,"Sawara",34.383,136.4
4324,2365,"Sayama",35.8561,139.423
4325,2349,"Sendai",38.25,140.883
4328,2362,"Shimada",33.967,131.933
4330,2362,"Shimizu",38.683,141.483
4331,2362,"Shimoda",26.167,127.65
4332,2337,"Shimukappu",43,142.417
4334,2332,"Shingu",33.717,130.433
4335,2351,"Shiojiri",36.1,137.967
4336,2337,"Shizunai",42.333,142.367
4337,2362,"Shizuoka",34.967,138.383
4338,2359,"Shobu",36.067,139.6
4339,2359,"Soka",35.817,139.8
4340,2351,"Suwa",31.45,130.733
4341,2365,"Tachikawa",35.7,139.417
4342,2370,"Tahara",34.95,134.767
4343,2334,"Tajimi",35.317,137.133
4344,2339,"Takahagi",35.9,139.383
4345,2357,"Takaishi",34.517,135.433
4346,2342,"Takamatsu",31.454,131.179
4347,2367,"Takaoka",31.95,131.3
4348,2338,"Takarazuka",34.8,135.35
4349,2335,"Takasaki",37.9,138.283
4350,2330,"Takayama",33.3,132.433
4352,2338,"Takino",42.917,141.367
4354,2329,"Tamana",32.917,130.567
4356,2329,"Tateyama",33.017,130.75
4357,2338,"Tatsuno",35.983,138
4358,2337,"Teshio",44.883,141.733
4359,2366,"Toba",34.483,136.85
4360,2372,"Tobaru",26.321,127.786
4362,2359,"Tokorozawa",35.783,139.467
4363,2364,"Tokushima",34.067,134.567
4364,2365,"Tokyo",35.7,139.767
4365,2357,"Tondabayashi",34.5,135.6
4367,2367,"Toyama",36.983,140.967
4368,2326,"Toyokawa",44.067,144.033
4370,2357,"Toyonaka",34.783,135.467
4371,2359,"Toyota",38.767,139.817
4373,2353,"Tsuru",32.633,130.983
4374,2369,"Tsuruoka",38.725,139.825
4375,2343,"Tsuruta",31.95,130.483
4376,2364,"Tsushima",35.167,136.717
4377,2356,"Tsuyama",35.05,134
4378,2359,"Urawa",35.85,139.65
4379,2329,"Urayasu",35.65,139.9
4380,2363,"Utsunomiya",36.55,139.867
4381,2331,"Wakayama",34.217,133.183
4382,2359,"Warabi",32.817,128.883
4384,2371,"Yamanouchi",35.333,139.55
4385,2354,"Yamauchi",37.867,139.4
4386,2370,"Yao",34.617,135.6
4387,2338,"Yashiro",34.917,134.967
4388,2339,"Yatabe",35.783,140.75
4389,2356,"Yokaichi",34.683,133.5
4390,2355,"Yokkaichi",33.533,131.333
4391,2344,"Yokohama",35.45,139.65
4392,2344,"Yokosuka",35.3,139.667
4393,2369,"Yonezawa",37.917,140.117
4394,2329,"Yotsukaido",35.65,140.167
4397,2401,"Eldoret",0.517,35.283
4399,2402,"Kakamega",0.283,34.75
4400,2400,"Kisumu",-0.1,34.75
4401,2397,"Meru",0.05,37.65
4402,2396,"Mombasa",-4.05,39.667
4403,2398,"Nairobi",-1.283,36.817
4404,2397,"Nakuru",-0.283,36.067
4405,2395,"Nyeri",-0.417,36.95
4406,2403,"Bishkek",42.9,74.6
4407,2409,"Karakol",42.4833,78.4
4408,2445,"Almaty",43.32,76.92
4409,2459,"Kokshetau",53.3,69.42
4410,2460,"Zhambyl",42.9,71.37
4411,1306,"Nuwara Eliya",6.97,80.77
4412,2583,"Clay-Ashland",6.423,-10.725
4413,2574,"Gbarnga",6.996,-9.472
4414,2583,"Monrovia",6.311,-10.805
4415,2617,"Maseru",-29.317,27.483
4416,2531,"Kaunas",54.9,23.9
4417,2535,"Klaipeda",55.717,21.117
4418,2623,"Diekirch",49.868,6.156
4419,2625,"Esch-Sur-Alzette",49.496,5.981
4420,2623,"Ettelbruck",49.848,6.104
4421,2501,"Liepaja",56.517,21.017
4422,2510,"RIGA",56.95,24.1
4423,2813,"Agadir",30.583,-9.167
4424,2787,"Casablanca",33.593,-7.616
4425,2696,"Chisinau",47.005,28.858
4426,2770,"Bamako",12.65,-8
4427,2773,"Gao",14.15,-10.5
4428,2770,"Tombouctou",16.767,-3.017
4429,2768,"Blantyre",-15.783,35
4430,2755,"Lilongwe",-13.983,33.783
4431,71,"Acambaro",20.033,-100.733
4432,56,"Agua Prieta",31.33,-109.56
4433,2885,"Aguascalientes",21.883,-102.3
4434,59,"Ajijic",20.3,-103.283
4435,203,"Alamos",22.617,-99.517
4436,2887,"Arizpe",25.55,-100.967
4437,2889,"Atotonilco",19.917,-99.217
4438,59,"Autlan De Navarro",19.767,-104.367
4439,74,"Cabo San Lucas",22.883,-109.9
4440,56,"Caborca",30.717,-112.15
4441,56,"Cananea",30.95,-110.3
4442,72,"Cancun",21.167,-86.833
4444,71,"Celaya",16.917,-93.117
4445,2890,"Chapala",18.617,-102.683
4446,2892,"Chignahuapan",19.833,-98.033
4447,66,"Chilpancingo",17.55,-99.5
4448,196,"Ciudad Juarez",31.733,-106.483
4449,198,"Ciudad Lerdo",25.533,-103.533
4450,2896,"Ciudad Obregon",20.2,-89.283
4451,2895,"Cordoba",18.883,-96.933
4452,2894,"Cosala",24.413,-106.691
4453,72,"Coyoacan",19.333,-99.167
4455,56,"Cumpas",29.983,-109.783
4456,62,"Delicias",14.767,-92.183
4457,2896,"Dzidzantun",21.25,-89.05
4458,201,"El Rosario",17.35,-97.6
4459,56,"Empalme",27.967,-110.817
4460,73,"Ensenada",31.867,-116.617
4461,69,"Gomez Palacio",25.45,-99.333
4462,66,"Guamuchil",17.167,-100.117
4463,71,"Guanajuato",15.1,-92.25
4464,56,"Guaymas",27.933,-110.9
4465,70,"Hidalgo",24.248,-99.438
4466,2886,"Huatabampo",26.833,-109.633
4467,71,"Irapuato",20.683,-101.35
4468,2890,"Jacona",19.95,-102.267
4469,59,"La Barca",20.283,-102.567
4470,59,"Lagos De Moreno",21.35,-101.917
4471,2891,"Lazaro Cardenas",22.21,-105.25
4472,59,"Loreto",21.183,-102.633
4473,2894,"Los Mochis",25.767,-108.967
4475,73,"Maneadero",31.717,-116.567
4476,197,"Manzanillo",19.05,-104.333
4477,2894,"Mazatlan",23.217,-106.417
4479,73,"Mulege",26.883,-111.983
4481,56,"Nacozari De Garcia",30.4,-109.65
4482,2889,"Naucalpan",19.467,-99.233
4483,56,"Navojoa",27.1,-109.433
4484,59,"Ocotlan",20.35,-102.767
4485,2895,"Orizaba",18.85,-97.1
4486,196,"Parral",26.933,-105.667
4487,204,"Piedras Negras",19.483,-98.05
4488,59,"Poncitlan",20.05,-103.433
4489,2892,"Puebla",19.05,-98.2
4490,56,"Puerto Penasco",29.983,-111.183
4491,59,"Puerto Vallarta",20.617,-105.25
4492,198,"Rosario",26.517,-105.667
4493,56,"Sahuaripa",29.05,-109.233
4494,71,"Salamanca",23.467,-99.3
4495,62,"Salvatierra",16.483,-92.333
4496,62,"San Cristobal De Las Casas",16.75,-92.633
4497,201,"San Felipe",16.85,-97.233
4498,74,"San Jose Del Cabo",23.05,-109.683
4499,201,"San Juan Del Rio",17.491,-95.759
4500,56,"San Luis Rio Colorado",32.483,-114.8
4501,71,"San Miguel De Allende",20.917,-100.75
4503,196,"Santa Rosalia",28.033,-106.467
4504,2895,"Sayula",17.867,-94.95
4505,66,"Taxco",18.5,-99.567
4506,73,"Tecate",32.567,-116.633
4507,2890,"Tehuantepec",18.683,-103.283
4508,59,"Tepatitlan",20.817,-102.733
4509,2889,"Tijuana",32.533,-117.017
4510,66,"Tixtla De Guerrero",17.583,-99.433
4512,59,"Tlaquepaque",20.65,-103.317
4513,74,"Todos Santos",23.45,-110.217
4514,2889,"Toluca",15.633,-92.733
4515,2887,"Torreon",30.5,-110.683
4516,60,"Tula",20.05,-99.35
4517,60,"Tulancingo",20.083,-98.367
4518,56,"Ures",29.433,-110.4
4519,2890,"Uruapan",19.417,-102.067
4520,2889,"Valle De Bravo",19.183,-100.133
4522,2887,"Valles",26.667,-100.683
4523,2895,"Veracruz",19.2,-96.133
4524,2895,"Xalapa",19.533,-96.917
4526,59,"Zapopan",20.717,-103.4
4528,4647,"Otjiwarongo",-18.083,13.083
4529,2967,"Benin City",6.333,5.633
4530,2962,"Ibadan",6.533,2.767
4531,2972,"Ile-Ife",7.467,4.567
4532,2953,"Kaduna",10.523,7.44
4533,2941,"Lagos",6.453,3.396
4534,718,"Owerri",5.483,7.033
4535,2943,"Port Harcourt",4.778,7.012
4536,3064,"Bluefields",12,-83.75
4537,3056,"Corinto",12.033,-86.35
4538,3048,"Diriamba",11.85,-86.233
4539,3051,"Esteli",13.083,-86.35
4540,3052,"Granada",11.933,-85.95
4541,3059,"Jalapa",13.917,-86.133
4542,3053,"Jinotega",13.1,-86
4543,3048,"Jinotepe",11.85,-86.2
4544,3050,"Juigalpa",12.083,-85.4
4545,3063,"Laguna De Perlas",12.35,-83.667
4546,3054,"Leon",12.433,-86.883
4547,3056,"Managua",12.15,-86.283
4549,3057,"Masaya",11.967,-86.1
4550,3059,"Ocotal",13.633,-86.483
4551,3049,"Posoltega",12.55,-86.983
4552,3063,"Puerto Cabezas",14.033,-83.383
4553,3064,"Rama",12.15,-84.217
4554,3061,"Rivas",11.433,-85.833
4555,3061,"San Isidro",11.617,-86
4556,3061,"San Jorge",11.45,-85.8
4557,3061,"San Marcos",11.583,-85.65
4558,3056,"San Rafael",12.683,-87.25
4559,3055,"Santo Domingo",13.533,-86.517
4560,3055,"Somoto",13.483,-86.583
4563,3063,"Waspan",14.733,-83.967
4564,2985,"Delft",52,4.367
4565,2977,"Dieren",52.05,6.133
4566,2982,"Enschede",52.217,6.9
4568,2984,"Kapelle",51.65,3.967
4570,2975,"Meppel",52.7,6.2
4571,2977,"Nijmegen",51.833,5.867
4573,2983,"Rhenen",51.967,5.567
4574,2985,"Rotterdam",51.917,4.5
4575,2983,"Soest",52.183,5.3
4577,2995,"Bergen",60.391,5.325
4578,2990,"Fagernes",60.517,11.167
4579,3007,"Flekkefjord",58.283,6.683
4580,2999,"Gjovik",60.8,10.7
4581,2994,"Hamar",60.8,11.1
4582,2993,"Hammerfest",70.662,23.688
4583,2992,"Kongsberg",59.65,9.65
4585,2997,"Mo",66.317,14.167
4586,3001,"Moss",59.437,10.669
4587,3002,"Stavanger",58.967,5.75
4588,3003,"Sunndal",61.933,5.65
4590,3004,"Trondheim",63.417,10.417
4591,2995,"Voss",60.6307,6.4096
4592,3009,"Kathmandu",27.717,85.317
4593,4723,"Ashburton",-43.9167,171.75
4594,4706,"Auckland",-36.867,174.767
4596,4723,"Christchurch",-43.533,172.633
4597,4744,"Dunedin",-45.867,170.5
4599,4814,"Gisborne",-38.653,178.004
4600,3137,"Hamilton",-37.783,175.283
4601,4741,"Kaikohe",-35.4053,173.796
4602,4721,"Lower Hutt",-41.217,174.917
4604,5019,"Palmerston North",-40.35,175.617
4605,4744,"Queenstown",-45.0333,168.667
4606,4729,"Rotorua",-38.1366,176.221
4607,4729,"Tauranga",-37.686,176.167
4608,4729,"Te Puke",-37.7871,176.267
4609,4723,"Timaru",-44.4,171.25
4610,3137,"Tokoroa",-38.233,175.867
4611,4721,"Upper Hutt",-41.1379,175.048
4612,3129,"Waitara",-38.925,174.25
4614,5019,"Wanganui",-39.933,175.05
4615,4741,"Whangarei",-35.7258,174.306
4616,3292,"Anton",8.4,-80.267
4617,3293,"Colon",9.359,-79.901
4618,3291,"David",8.433,-82.433
4619,3297,"Panama City",8.967,-79.533
4620,3191,"Arequipa",-16.399,-71.535
4621,3194,"Callao",-5.35,-73.767
4622,3189,"Caras",-9.067,-77.817
4623,3189,"Chimbote",-3.931,-70.786
4624,3195,"Cuzco",-6.983,-76.467
4625,3202,"Lima",-12.05,-77.05
4626,3202,"Miraflores",-7.038,-76.457
4627,3202,"Pucallpa",-10.536,-76.771
4628,3200,"Trujillo",-8.117,-79.033
4629,3333,"Lae",-6.733,147
4630,3426,"Bacarra",18.25,120.617
4631,3533,"Bacolod",17.167,121.85
4632,3473,"Baguio",16.417,120.6
4633,3469,"Cagayan",6.983,118.5
4634,3460,"Camiling",15.533,120.533
4635,3418,"Cavite City",14.483,120.917
4636,3485,"Cebu",10.3,123.9
4637,3490,"Davao",7.067,125.6
4638,3496,"Iloilo",10.7,122.567
4640,3467,"Kalibo",6.35,124.817
4641,3461,"Laoag",14.967,120.167
4642,3403,"Legaspi",16.033,120.817
4643,3502,"Lipa City",13.95,121.167
4644,3505,"Makati",16.417,121.117
4645,3505,"Manila",14.583,121
4646,3505,"Marikina",14.633,121.1
4647,3508,"Olongapo",14.833,120.267
4648,3435,"Palo",11.151,124.992
4649,3447,"Puerto Princesa",9.733,118.733
4650,3505,"Quezon City",14.633,121.033
4651,3416,"Roxas",11.585,122.751
4652,3463,"San Pablo",7.667,123.45
4654,3219,"Lahore",31.571,74.313
4655,3218,"Peshawar",34.017,71.55
4657,3285,"Bielsko-Biala",49.817,19.033
4659,3285,"Czestochowa",50.8,19.117
4660,3284,"Gdansk",54.35,18.667
4661,3284,"Gdynia",54.5,18.55
4662,3278,"Gorzow Wielkopolski",52.733,15.233
4663,3288,"Gulcz",52.883,16.383
4664,3274,"Jelenia Gora",50.9,15.733
4665,3285,"Katowice",50.267,19.017
4667,3280,"Lomianki",52.35,20.9
4668,3283,"Lomza",53.183,22.083
4669,3280,"Milanowek",52.133,20.683
4670,3285,"Olsztyn",50.75,19.267
4671,3280,"Plock",52.55,19.7
4672,3288,"Poznan",52.417,16.967
4673,3280,"Pultusk",52.717,21.1
4674,3282,"Rzeszow",50.05,22
4675,3279,"Slomniki",50.25,20.1
4676,3289,"Szczecin",53.417,14.583
4677,3277,"Torun",51.1,23.083
4680,3274,"Wroclaw",51.1,17.033
4681,3285,"Zawiercie",50.5,19.433
4682,3276,"Zielona Gora",51.7,19.7
4683,3319,"Angra Do Heroismo",38.65,-27.217
4684,3305,"Coimbra",40.2,-8.417
4685,3307,"Faro",37.017,-7.933
4686,3308,"Funchal",32.633,-16.9
4688,3319,"Horta",38.533,-28.633
4689,3307,"Lagoa",37.167,-7.5
4690,3308,"Machico",32.7,-16.767
4691,3318,"Mangualde",40.6,-7.767
4692,3319,"Ponta Delgada",37.733,-25.667
4694,3319,"Ribeira Grande",37.817,-25.517
4696,3305,"Vila Do Porto",36.933,-25.15
4697,3319,"Villa Franca Do Campo",37.717,-25.433
4698,3185,"Asuncion",-25.267,-57.667
4699,3185,"Santa Maria",-20.417,-58.117
4700,3366,"Brasov",45.633,25.583
4701,3367,"Bucharest",44.433,26.1
4702,3370,"Cluj-Napoca",46.767,23.6
4703,3389,"Sibiu",45.8,24.15
4704,3539,"Archangelsk",64.567,40.533
4705,3591,"Azov",47.11,39.414
4707,3537,"Barnaul",53.367,83.75
4708,3571,"Borovichi",54.967,62.7
4709,3606,"Budennovsk",44.778,44.167
4711,3612,"Cherepovets",59.133,37.9
4712,105,"Derbent",42.063,48.296
4713,3603,"Dikson",73.5039,80.5729
4714,3577,"Dmitrov",53.487,35.87
4715,3577,"Dubna",55.867,38.967
4716,3601,"Ekaterinburg",56.85,60.6
4717,3600,"Georgievsk",44.152,43.47
4718,3588,"Ishim",56.5,86.217
4719,3600,"Kislovodsk",43.918,42.729
4720,3577,"Konakovo",55.423,37.168
4721,3539,"Kotlas",61.261,46.656
4722,3569,"Krasnodar",45.033,38.977
4723,3569,"Krasnogorsk",55.051,37.821
4724,3582,"Krestsy",58.25,32.517
4726,3589,"Vladivostok",43.133,131.9
4727,3600,"Lermontov",44.1,42.95
4728,3578,"Lomonosov",59.912,29.745
4730,3589,"Nakhodka",42.833,132.895
4733,3600,"Novopavlovsk",43.962,43.634
4734,3570,"Novorossiisk",44.724,37.771
4735,3557,"Obninsk",55.097,36.61
4736,3539,"Okha",56.492,33.889
4737,3575,"Palatka",60.1,150.9
4738,3616,"Pereslavl'-Zalesskiy",56.733,38.85
4740,3558,"Provideniya",64.383,-173.3
4741,3560,"Pryazha",61.7,33.617
4742,3591,"Pushkin",46.838,41.111
4743,3555,"Pushkino",54.421,21.541
4744,3600,"Pyatigorsk",44.041,43.055
4745,3591,"Rostov-On-Don",47.236,39.714
4747,3537,"Rubtsovsk",51.5,81.25
4748,3616,"Rybinsk",58.05,38.833
4749,3576,"Sarov",54.932,43.329
4750,3577,"Serpukhov",54.921,37.411
4752,3569,"Sochi",43.6,39.73
4753,3562,"Sovetskaya Gavan'",49.05,140.283
4755,3582,"Staraya Russa",57.991,31.361
4756,91,"Syktyvkar",61.667,50.812
4757,3582,"Taldom",56.733,37.533
4759,3595,"Togliatti",53.523,49.413
4760,3538,"Tynda",55.167,124.717
4763,3549,"Vladikavkaz",43.043,44.684
4767,3577,"Zelenograd",56.001,37.209
4771,4002,"Eskilstuna",59.367,16.5
4773,4010,"Gothenburg",57.717,11.967
4774,4009,"Hammenh",55.5,14.15
4775,4009,"Helsingborg",56.05,12.7
4776,3992,"Jonkoping",57.783,14.183
4778,4004,"Karlskoga",59.333,14.517
4779,3994,"Leksand",60.733,15
4782,4010,"M",57.65,12.15
4783,3994,"Mora",60.4,15.6
4784,4004,"Munkfors",59.833,13.533
4785,4009,"Nybro",55.433,13.933
4786,4002,"Oxel",58.667,17.1
4787,3986,"Ronneby",56.2,15.3
4788,4010,"Skovde",58.4,13.833
4789,4008,"Solna",59.367,18.017
4791,4004,"Sunne",59.833,13.15
4792,3996,"Vaxjo",56.883,14.817
4793,3993,"Vimmerby",57.667,15.85
4794,3763,"Ljubljana",46.055,14.514
4795,2592,"Bardejov",49.283,21.283
4796,2590,"Kosice",48.717,21.25
4797,2591,"Nitra",48.317,18.083
4798,2592,"Spisska Nova Ves",48.95,20.567
4799,3852,"Bo",7.946,-11.763
4800,3853,"Freetown",8.49,-13.234
4801,3860,"San Marino",43.9347,12.4547
4802,3697,"Dakar",14.667,-17.433
4803,3697,"Kaolack",14.15,-16.067
4804,3695,"Linguere",15.4,-15.117
4806,3699,"Ziguinchor",12.583,-16.267
4807,1646,"Arcatao",14.083,-88.75
4809,1655,"San Antonio Los Ranchos",13.633,-88.867
4810,1654,"San Jose Las Flores",13.869,-89.498
4811,1654,"San Miguel",14.333,-89.35
4812,1644,"Santa Ana",13.259,-88.176
4813,1647,"Tenancingo",13.833,-88.983
4814,5395,"Lome",6.132,1.223
4815,4102,"Bangkok",13.75,100.517
4817,776,"Laem Chabang",0,0
4819,4140,"Dushanbe",38.089,70.012
4820,4142,"Khujand",40.28,69.632
4821,5053,"Ashgabat",37.95,58.383
4822,4190,"Carthage",36.854,10.33
4823,4184,"Gafsa",34.425,8.784
4824,4225,"Istanbul",41.017,28.967
4825,4226,"Izmir",38.417,27.15
4826,4223,"Mersin",36.8,34.633
4827,4239,"Mugla",37.2,28.367
4829,4276,"Arusha",-3.367,36.683
4830,4293,"Bagamoyo",-4.55,37.867
4831,4277,"Dar Es Salaam",-6.8,39.283
4832,4293,"Morogoro",-5.183,38.4
4833,4290,"Shinyanga",-3.667,33.433
4834,4441,"Alushta",44.667,34.417
4835,4437,"Bogodukhov",50.161,35.516
4836,4443,"Brovary",50.5,30.767
4837,4431,"Cherkassy",49.433,32.067
4838,4431,"Chernivtsi",48.3,25.933
4840,4434,"Dnebrovsky",47.567,34.967
4841,4435,"Gorlovka",48.3,38.05
4842,4431,"Kaniv",49.75,31.467
4843,4437,"Kharkiv",50,36.25
4844,4446,"Kherson",46.633,32.6
4846,4442,"Kiev",50.433,30.517
4848,4445,"Lviv",49.833,24
4849,4437,"Merefa",49.82,36.052
4850,4447,"Odessa",46.467,30.733
4851,4448,"Poltava",49.583,34.567
4852,4431,"Shpola",49.004,31.392
4854,4453,"Smila",49.783,28.167
4855,4452,"Ternopil",0,0
4857,4455,"Uzhgorod",48.617,22.3
4858,4447,"Yalta",49.181,36.458
4859,4535,"Caracas",10.5,-66.917
4860,4527,"Puerto la Cruz",10.217,-64.617
4861,4307,"Jinja",0.43,33.211
4862,4311,"Kampala",0.317,32.583
4863,5392,"Andover",51.207,-1.477
4864,5392,"Ashby-de-la-Zouch",52.745,-1.474
4865,5392,"Ashford",51.432,-0.468
4866,5392,"Barnet",51.644,-0.2
4868,5391,"Belfast",54.583,-5.933
4869,5392,"Belper",53.023,-1.471
4870,5392,"Berwick Upon Tweed",55.766,-2.008
4871,5392,"Billericay",51.624,0.42
4872,5392,"Birmingham",52.485,-1.86
4873,5390,"Braemar",57.007,-3.408
4874,5389,"Brecon",51.9522,-3.3842
4875,5392,"Brentwood",51.617,0.319
4876,5392,"Broomfield",51.355,1.153
4877,5392,"Burton Upon Tren",52.799,-1.637
4878,5392,"Cambridge",52.205,0.144
4879,5392,"Canterbury",51.276,1.076
4880,5392,"Cheltenham",51.901,-2.08
4881,5392,"Chester",53.192,-2.891
4884,5392,"Colchester",51.892,0.9
4885,5392,"Coventry",52.403,-1.508
4886,5390,"Cumbernauld",55.948,-3.978
4887,5392,"Dartmouth",50.352,-3.582
4889,5392,"Doncaster",53.516,-1.133
4890,5390,"Dunbar",55.998,-2.521
4891,5390,"Dundee",56.48,-3.031
4892,5392,"Durham",54.777,-1.572
4893,5390,"Edinburgh",55.949,-3.161
4894,5390,"Falkirk",56.005,-3.788
4895,5390,"Forres",57.606,-3.615
4896,5392,"Glastonbury",51.152,-2.708
4898,5390,"Grangemouth",56.015,-3.709
4899,5392,"Great Wilbraham",52.194,0.261
4900,5390,"Greenock",55.951,-4.763
4902,5392,"Hartlepool",54.685,-1.217
4903,5392,"Haverhill",52.082,0.43
4904,5389,"Hawarden",53.182,-3.025
4905,5390,"Inverness",57.48,-4.227
4906,5392,"Keighley",53.869,-1.901
4907,5390,"Kelso",55.603,-2.437
4908,5390,"Kennet",56.104,-3.729
4909,5392,"Kettering",52.397,-0.714
4910,5392,"Kingston Upon Hull",53.75,-0.339
4911,5392,"Laughton",52.87,-0.403
4912,5392,"Lewes",50.876,0.011
4913,5389,"Machynlleth",52.587,-3.853
4914,5392,"Mansfield",53.148,-1.2
4915,5392,"Margate",51.384,1.385
4916,5392,"Marlborough",51.424,-1.734
4917,5392,"Merton",51.853,-1.165
4918,5390,"Newark",59.269,-2.482
4919,5392,"Newcastle Upon Tyne",54.9779,-1.61323
4922,5392,"Northampton",52.246,-0.894
4923,5390,"Oban",56.418,-5.462
4925,5392,"Penzance",50.12,-5.547
4926,5390,"Plains",55.877,-3.926
4927,5392,"Plymouth",50.388,-4.146
4928,5392,"Portsmouth",50.809,-1.07
4931,5392,"Salisbury",51.073,-1.793
4932,5392,"Scarborough",54.281,-0.41
4935,5392,"Southampton",50.919,-1.395
4936,5392,"Southborough",51.159,0.267
4937,5392,"Stoke On Trent",53.0288,-2.1747
4938,5392,"Stratford-Upon-Avon",52.197,-1.715
4939,5392,"Stroud",51.111,-0.678
4941,5392,"Taunton",51.014,-3.091
4943,5392,"Truro",50.26,-5.052
4945,5392,"Wallingford",51.601,-1.126
4947,5392,"Wareham",50.687,-2.106
4948,5392,"Warwick",52.287,-1.582
4949,5392,"Watford",51.665,-0.402
4950,5392,"Whitby",54.482,-0.618
4952,5392,"Wisbech",52.663,0.166
4953,5392,"Wisborough Green",51.028,-0.51
4954,4496,"Maldonado",-34.9,-54.95
4955,4497,"Montevideo",-34.883,-56.183
4956,4498,"Paysandu",-32.321,-58.076
4957,4508,"Bukhara",39.775,64.429
4958,4516,"Samarkand",39.654,66.96
4959,4519,"Tashkent",41.317,69.25
4960,4568,"Ho Chi Minh City",10.75,106.667
4961,4612,"Hue",16.467,107.6
4962,5309,"Pago Pago",14.27,-170.7
4963,4681,"Kitwe",-12.817,28.2
4964,4688,"Lusaka",-15.417,28.283
4965,4693,"Chinhoyi",-17.367,30.2
4966,4690,"Gweru",-19.45,29.817
4967,4691,"Harare",-17.833,31.05
4968,4689,"Mutare",-18.967,32.667
4969,1150,"Freeport",26.533,-78.7
4971,1148,"Nassau",25.083,-77.35
4972,1316,"Pointe Noire",1.556,15.785
4973,5134,"Uhersky Brod",49.033,17.65
4974,601,"Kladno",49.783,15.983
4977,2435,"Andong",34.553,126.583
4978,2425,"Anyang",35.717,127.05
4979,2430,"Bucheon City",37.483,126.783
4981,2424,"Jeju",33.51,126.522
4982,2428,"Chinju",35.193,128.085
4983,2425,"Chonju",35.817,127.15
4985,2426,"Chungju",36.634,127.491
4987,2432,"Inchon",37.967,124.717
4989,2427,"Kangnung",37.755,128.888
4990,2425,"Kunsan",35.983,126.717
4991,2435,"Kwangju",37.467,127.183
4992,2429,"Masan",35.594,127.768
4993,2424,"Pohang",33.267,126.717
4994,2429,"Pusan",35.7,128.033
4996,2427,"Sokch'o",38.2,128.6
4998,2432,"Suwon",36.45,127.133
4999,2433,"Taegu",34.893,128.077
5000,2436,"Taejon",36.35,127.333
5001,2427,"Tongdu-ch'on",37.671,128.215
5002,2428,"Ulsan",35.54,129.317
5003,2427,"Wonju",37.35,127.945
5004,1915,"Diekirch North",49.868,6.156
5005,5135,"Skopje",42.001,21.434
5006,5239,"Tetovo",42.011,20.971
5009,689,"Mosta",35.909,14.426
5010,5390,"Hamilton",55.776,-4.033
5011,5390,"Prestwick",55.495,-4.62
5012,5390,"Stirling",56.119,-3.938
5013,2589,"Bratislava",48.15,17.117
5015,2432,"Songnam",37.446,127.16
5017,586,"Ping-Tung City",0,0
5018,586,"Ping-Tung County",0,0
5020,586,"Tai-Tung County",0,0
5021,586,"Xian",0,0
5023,2233,"B'nei Brak",32.586,35.439
5024,586,"Pan-Chiao City",0,0
5028,1196,"Yangon",16.783,96.167
5030,1249,"Bandar Seri Begawan",4.883,114.933
5033,1172,"Aiquile",-18.167,-65.167
5034,1174,"Apolo",-14.717,-68.517
5035,1177,"Atocha",-20.933,-66.233
5036,1179,"Bermejo",-22.167,-64.7
5037,1175,"Caracollo",-17.65,-67.167
5038,1174,"Chara",-17.6,-69.467
5039,1172,"Chimore",-16.983,-65.133
5040,1173,"Chulumani",-14.883,-66.75
5042,1174,"Corioco",-16.167,-67.733
5043,1173,"Cotoca",-11.333,-66.233
5045,1173,"Guayaramerin",-10.8,-65.383
5046,1172,"Lagunillas",-16.833,-66.633
5047,1174,"Machacamarca",-16.5,-68.483
5048,1172,"Mizque",-17.933,-65.317
5050,1176,"Portachuelo",-11.267,-66.267
5051,1177,"Potosi",-19.583,-65.75
5052,1178,"Puerto Grether",-17.183,-64.35
5053,1172,"Puerto Patino",-16.617,-65.783
5054,1172,"Puerto Villarroel",-16.867,-64.783
5055,1172,"Punata",-17.55,-65.833
5057,1173,"Riberalta",-10.983,-66.1
5058,1173,"San Borja",-12.583,-64.233
5059,1178,"San Jose de Chiquitos",-17.85,-60.783
5060,1178,"Santa Ana",-17.383,-61.483
5061,1178,"Santa Rosa del Sara",-17.117,-63.583
5063,1171,"Sucre",-19.033,-65.283
5064,1179,"Tarija",-21.517,-64.75
5065,1176,"Trinidad",-11.083,-67.417
5066,1177,"Tupiza",-21.45,-65.717
5067,1174,"Uyuni",-17.433,-66.917
5070,1171,"Villazon",-20.533,-62.267
5071,1174,"Vinto",-17.1,-69.233
5072,1179,"Yacuiba",-22.033,-63.75
5073,1174,"Yolosa",-16.233,-67.733
5075,1139,"Freetown",24.283,-75.417
5076,1156,"Marsh Harbour",26.55,-77.05
5077,1148,"Nassau City",25.083,-77.35
5080,1366,"Antofagasta",-23.65,-70.4
5081,1376,"Arica",-18.483,-70.333
5082,1371,"Cerrillos",-34.383,-70.8
5084,1369,"Chiguayante",-36.917,-73.017
5085,1369,"Chillan",-36.6,-72.117
5086,1369,"Concepcion",-36.833,-73.05
5087,1370,"Conchali",-31.883,-71.483
5088,1375,"El Arrayan",-33.35,-70.467
5089,1370,"El Bosque",-30.317,-70.633
5090,1376,"Estacion Central",-18.367,-69.967
5091,1369,"Huachipato",-36.75,-73.117
5094,1376,"Iquique",-20.217,-70.167
5095,1375,"La Cisterna",-33.55,-70.683
5096,1375,"La Dehesa",-33.3,-70.533
5097,1364,"La Florida",-32.8,-70.567
5098,1376,"La Granja",-20.9,-69.617
5100,1375,"La Reina",-33.45,-70.55
5101,1375,"Las Condes",-33.367,-70.517
5103,1375,"Lo Espejo",-33.533,-70.717
5105,1375,"Macul",-33.5,-70.567
5106,1375,"Maipu",-33.517,-70.767
5107,1375,"Nunoa",-33.467,-70.6
5109,1376,"Pena Blanca",-20.1,-68.867
5110,1375,"Penalolen",-33.483,-70.533
5111,1369,"Penco",-36.733,-72.983
5112,1375,"Providencia",-33.433,-70.617
5114,1375,"Puente Alto",-33.617,-70.583
5115,1375,"Quilicura",-33.367,-70.75
5116,1364,"Quilpue",-33.045,-71.449
5117,1375,"Quinta Normal",-33.45,-70.7
5118,1371,"Rancagua",-34.167,-70.75
5119,1370,"Recoleta",-30.483,-71.167
5120,1364,"Renaca",-32.966,-71.545
5121,1375,"Renca",-33.4,-70.733
5122,1370,"San Bernardo",-30.367,-71.317
5123,1375,"San Joaquin",-33.6,-70.683
5124,1370,"San Miguel",-30.817,-70.617
5125,1368,"San Pedro",-27.317,-70.567
5126,1366,"San Ramon",-25.35,-70.45
5127,1371,"San Vicente",-34.083,-71.75
5128,1375,"Vitacura",-33.4,-70.6
5129,1400,"Arauca",9.17,-73.547
5130,1419,"Barrancabermeja",7.05,-73.867
5131,1398,"Barrancas",8.254,-72.485
5132,1413,"Buga",2.183,-77.883
5133,1415,"Chiquinquira",0.1,-75.067
5134,1414,"Cucuta",7.9,-72.517
5136,1419,"El Centro",6.95,-73.767
5137,1426,"Engativa",4.717,-74.15
5138,1399,"Envigado",6.171,-75.584
5139,1426,"Facatativa",4.817,-74.367
5140,1413,"Florencia",1.117,-77.35
5141,1426,"Fontibon",4.667,-74.15
5142,1399,"Fragua",7.283,-74.8
5143,1426,"Funza",4.717,-74.217
5144,1426,"Fusagasuga",4.342,-74.362
5146,1419,"Galan",7.328,-73.141
5147,1419,"Girardot",6.376,-73.382
5148,1413,"Ipiales",0.833,-77.617
5149,1399,"Itagui",6.172,-75.611
5150,1415,"Junin",-0.333,-74.133
5151,1421,"La Calera",3.179,-75.639
5152,1413,"La Victoria",5.533,-74.2
5153,1413,"Las Cruces",0.867,-77.6
5154,1400,"Las Delicias",6.941,-70.204
5155,1421,"Laureles",4.259,-75.323
5156,1398,"Leticia",-4.15,-69.95
5157,1427,"Madrid",4.446,-74.157
5158,1411,"Maicao",11.376,-72.241
5159,1429,"Melgar",4.2,-74.65
5160,1406,"Monteria",8.758,-75.883
5161,1403,"Mosquera",2.35,-76.867
5162,1410,"Neiva",2.933,-75.3
5163,1429,"Paipa",5.783,-73.117
5165,1422,"Palmira",3.533,-76.283
5166,1414,"Pamplona",8.448,-73.22
5167,1413,"Pasto",1.217,-77.267
5168,1417,"Pereira",4.817,-75.7
5170,1405,"Quibdo",5.7,-76.633
5171,1411,"Riohacha",11.55,-72.917
5173,1418,"San Andres",9.133,-75.5
5176,1426,"Soacha",4.583,-74.217
5177,1429,"Sogamoso",5.717,-72.933
5178,1426,"Suba",4.75,-74.083
5179,1426,"Tocaima",4.467,-74.633
5180,1426,"Usaquen",4.7,-74.033
5181,1404,"Valledupar",4.183,-73.217
5182,1414,"Villa De Leiva",7.04,-72.399
5183,1412,"Villavicencio",4.15,-73.65
5184,1421,"Yopal",4.133,-74.6
5185,1426,"Zipaquira",5.017,-74
5191,1524,"Arenoso",18.317,-71.2
5192,1519,"Azua",18.45,-70.733
5193,1519,"Azua De Compostela",18.45,-70.733
5194,1521,"Bahoruco",18.083,-71.1
5195,1548,"Bajos De Haina",18.417,-70.033
5196,1533,"Bani",18.283,-70.333
5197,1528,"Banica",19.083,-71.7
5198,1521,"Barahona",18.1894,-71.0944
5199,1547,"Bayaguana",18.75,-69.633
5200,1538,"Bohechio",18.767,-70.983
5201,1546,"Bonao",18.717,-68.65
5202,1521,"Cabral",18.25,-71.217
5203,1530,"Cabrera",19.633,-69.9
5204,1548,"Cambita Garabitos",18.45,-70.2
5207,1531,"Castanuelas",19.7,-71.5
5208,1524,"Castillo",18.5,-70.533
5209,1525,"Cayetano Germosen",19.333,-70.483
5211,1537,"Cevicos",19,-69.983
5212,1527,"Chavon Abajo",18.567,-68.85
5213,1528,"Comendador",18.878,-71.703
5214,1537,"Cotui",19.05,-70.15
5215,1526,"Cristobal",18.3,-71.3
5216,1522,"Dajabon",19.55,-71.7
5217,1547,"Don Juan",18.233,-71.75
5218,1523,"Duarte",18.483,-69.867
5219,1526,"Duverge",18.3,-70.567
5220,1519,"El Cacao",18.517,-70.7
5221,1538,"El Cercado",18.583,-70.65
5222,1530,"El Factor",19.317,-69.883
5223,1539,"El Guayabal",18.55,-69.55
5224,1528,"El Llano",18.25,-70.35
5225,1521,"El Penon",19.617,-70.417
5226,1522,"El Pino",18.3,-70.267
5228,1544,"El Valle",18.717,-69.567
5229,1528,"Elias Pina",18.878,-71.703
5230,1521,"Enriquillo",17.9,-71.233
5232,1547,"Esperalvillo",18.817,-70.033
5233,1542,"Esperanza",18.583,-71.517
5234,1519,"Estebania",18.4,-70.083
5235,1537,"Fantino",19.117,-70.3
5236,1521,"Fundacion",18.417,-70.167
5237,1520,"Galvan",18.5,-71.333
5238,1525,"Gaspar Hernandez",19.617,-70.283
5239,1519,"Guayabal",18.6,-71.65
5241,1544,"Hato Mayor",18.767,-69.25
5242,1544,"Hato Mayor Del Rey",18.767,-69.25
5243,1527,"Higuey",18.45,-70.267
5244,1528,"Hondo Valle",18.717,-71.7
5245,1524,"Hostos",19.183,-70.017
5246,1523,"Independencia",18.467,-69.9
5247,1525,"Jamao Al Norte",19.65,-70.45
5248,1526,"Jimani",18.491,-71.851
5249,1525,"Jose Contreras",19.467,-70.45
5250,1538,"Juan De Herrera",18.867,-71.233
5251,1528,"Juan Santiago",18.233,-71.25
5252,1521,"La Altagracia",18.1,-71.133
5253,1521,"La Cienaga",18.067,-71.1
5254,1548,"La Cueva",18.483,-70.25
5255,1526,"La Descubierta",18.567,-71.733
5257,1543,"La Mata",18.717,-69.15
5259,1542,"Laguna Salada",19.65,-71.083
5260,1519,"Las Charcas",18.45,-70.617
5261,1537,"Las Cuevas",18.483,-70.25
5262,1524,"Las Guaranas",18.717,-69.25
5263,1537,"Las Matas",18.874,-71.521
5264,1538,"Las Matas De Farfan",18.874,-71.521
5266,1521,"Las Salinas",18.217,-70.55
5267,1536,"Las Terrenas",19.317,-69.533
5269,1522,"Loma De Cabrera",19.417,-71.617
5270,1541,"Los Almacigos",19.417,-71.433
5271,1548,"Los Cacaos",19.417,-70.35
5272,1520,"Los Rios",18.517,-71.583
5273,1546,"Maimon",18.717,-70.083
5274,1542,"Mao",19.567,-71.083
5276,1533,"Matanzas",18.233,-70.417
5277,1526,"Mella",18.55,-69.9
5278,1543,"Miches",18.983,-69.05
5279,1525,"Moca",19.4,-70.517
5280,1541,"Moncion",19.417,-71.167
5281,1546,"Monsenor Nouel",18.933,-70.417
5283,1531,"Monte Plata",18.8,-69.783
5284,1530,"Nagua",19.383,-69.833
5285,1520,"Neiba",18.467,-71.417
5286,1520,"Neyba",18.467,-71.417
5287,1548,"Nigua",18.383,-70.05
5288,1527,"Nisibon",18.95,-68.817
5289,1533,"Nizao",18.25,-70.2
5290,1527,"Otra Banda",18.65,-68.667
5291,1532,"Oviedo",17.783,-71.367
5292,1519,"Padre Las Casas",18.733,-70.933
5293,1521,"Paraiso",18,-71.167
5294,1522,"Partido",19.483,-71.55
5295,1532,"Pedernales",18.033,-71.75
5296,1528,"Pedro Santana",19.1,-71.7
5297,1521,"Penon",18.3,-71.183
5298,1531,"Pepillo Salcedo",19.701,-71.753
5299,1519,"Peralta",18.583,-70.767
5300,1533,"Peravia",18.283,-70.317
5301,1546,"Piedra Blanca",18.433,-70.033
5302,1524,"Pimentel",19.183,-70.1
5303,1521,"Polo",18.083,-71.283
5305,1519,"Pueblo Viejo",18.233,-71.517
5306,1533,"Rancho Arriba",18.567,-70.7
5307,1522,"Restauracion",19.317,-71.683
5308,1544,"Rio San Juan",19.233,-69.317
5309,1533,"Sabana Buey",18.267,-70.533
5310,1544,"Sabana De La Mar",19.067,-69.383
5311,1547,"Sabana Grande De Boya",18.95,-69.8
5312,1548,"Sabana Grande Palenque",18.267,-70.15
5313,1533,"Sabana Larga",18.317,-70.267
5314,1519,"Sabana Yegua",18.717,-71.017
5315,1535,"Salcedo",19.383,-70.417
5318,1548,"San Cristobal",18.3,-71.3
5320,1524,"San Francisco De Macoris",19.3,-70.25
5322,1541,"San Ignacio De Sabaneta",19.467,-71.333
5324,1533,"San Jose De Ocoa",18.55,-70.5
5325,1539,"San Juan",18.8,-71.233
5327,1527,"San Rafael Del Yuma",18.433,-68.667
5328,1525,"San Victor",19.467,-70.517
5329,1536,"Sanchez",19.233,-69.6
5332,1541,"Santiago Rodriguez",19.467,-71.333
5335,1519,"Tabara Arriba",18.567,-70.883
5336,1520,"Tamayo",18.4,-71.2
5337,1535,"Tenares",19.367,-70.35
5338,1520,"Ubilla",18.367,-71.217
5339,1538,"Vallejuelo",18.65,-71.333
5340,1542,"Valverde",19.567,-71.083
5341,1521,"Vicente Noble",18.383,-71.183
5342,1548,"Villa Altagracia",18.667,-70.167
5344,1520,"Villa Jaragua",18.483,-71.5
5345,1524,"Villa Riva",19.183,-69.917
5346,1535,"Villa Tapia",19.3,-70.417
5347,1531,"Villa Vasquez",19.75,-71.45
5348,1548,"Yaguate",18.333,-70.183
5349,1547,"Yamasa",18.767,-70.017
5350,1519,"Yayas De Viajama",18.6,-70.917
5351,1566,"Ambato",-1.25,-78.617
5352,1562,"Bahia",-0.6,-80.417
5353,1562,"Bahia De Caraquez",-0.6,-80.417
5354,1560,"Loja",-4,-79.217
5355,1556,"Machala",-3.267,-79.967
5356,1562,"Manta",-0.95,-80.733
5357,1559,"Otavalo",0.233,-78.267
5358,1562,"Portoviejo",-1.05,-80.45
5359,1549,"Puerto Ayora",-0.75,-90.317
5360,1549,"Puerto Baquerizo Moreno",-0.9,-89.6
5361,1565,"Santo Domingo",-0.25,-79.15
5362,1553,"Tulcan",0.8,-77.717
5363,1985,"Boca Del Monte",14.55,-90.517
5364,1985,"Guatemala",14.633,-90.517
5365,1985,"MIXCO",14.633,-90.6
5366,1985,"SAN MIGUEL PETAPA",14.5,-90.567
5367,1985,"VILLA CANALES",14.483,-90.533
5368,1989,"VILLA NUEVA",14.333,-89.783
5369,2032,"Albion",6.817,-58.15
5371,2034,"Bartica",5.783,-57.633
5374,2035,"Blairmont",6.25,-57.55
5375,2034,"Charity",7.4,-58.6
5383,2035,"Fort Wellington",6.4,-57.6
5384,2035,"Hopetown",6.383,-57.617
5385,2038,"Linden",6,-58.3
5386,2038,"MACKENZIE",6,-58.283
5387,2032,"MAHAICA",6.55,-57.8
5388,2035,"MAHAICONY",6.55,-57.8
5389,2033,"NEW AMSTERDAM",6.25,-57.517
5390,2033,"OREALLA",5.317,-57.333
5391,2034,"PARIKA",6.867,-58.417
5392,2033,"PORT MOURANT",6.25,-57.333
5393,2038,"ROCKSTONE",5.983,-58.55
5394,2033,"ROSE HALL",6.267,-57.35
5395,2035,"ROSIGNOL",6.283,-57.533
5397,2033,"SKELDON",5.883,-57.133
5398,2033,"SPRINGLANDS",5.9,-57.15
5399,2036,"SUDDIE",7.117,-58.483
5402,2056,"Comayaguela",13.6,-87.717
5403,2056,"Cortes",13.75,-87.217
5404,2055,"Danli",14.033,-86.583
5405,2056,"El Llano",13.983,-87.467
5406,2056,"El Progreso",14.717,-87.017
5408,2054,"La Lima",15.433,-87.917
5409,2066,"Progreso",15.4,-87.8
5410,2054,"Puerto Cortes",15.85,-88
5411,2054,"SAN PEDRO SULA",15.5,-88.033
5412,2050,"SANTA RITA",13.367,-86.733
5413,2049,"TELA",15.783,-87.45
5414,2064,"YORO",14.75,-88.35
5415,2055,"YUSCARAN",13.933,-86.85
5416,2042,"Bourdon",18.833,-72.333
5418,2044,"Carrefour Shada",19.867,-72.583
5419,2042,"Delmas",18.55,-72.3
5421,2046,"Diquini",18.533,-72.4
5422,2046,"MARTISSANT",18.533,-72.367
5423,2046,"PETIONVILLE",18.517,-72.283
5425,2381,"AdelphI",18.45,-77.8
5426,2373,"Amity Hall",17.95,-77.35
5427,2381,"Anchovy",18.4,-77.933
5428,2381,"Bickersteth",18.367,-77.917
5430,2379,"Braeton",17.95,-76.9
5431,2375,"Browns Town",18.033,-77.45
5433,2379,"Bushy Park",17.933,-77.05
5434,2383,"Cambridge",17.933,-76.65
5435,2381,"Catadupa",18.283,-77.883
5436,2379,"Central Village",17.983,-76.917
5437,2373,"Chapelton",18.083,-77.267
5438,2381,"Chatham",18.467,-77.767
5439,2374,"Chigwell",18.4,-78.05
5440,2380,"Claremont",17.917,-77.733
5441,2382,"Copse",18.383,-77.967
5442,2373,"Denbigh",17.95,-77.267
5443,2378,"Discovery Bay",18.467,-77.4
5444,2384,"Duncans",18.467,-77.533
5445,2384,"Falmouth",18.5,-77.65
5447,2381,"Flagstaff",18.333,-77.783
5449,2381,"Flower Hill",18.483,-77.85
5450,2373,"Four Paths",17.967,-77.3
5451,2373,"Freetown",17.9,-77.15
5453,2384,"Gales Valley",18.417,-77.75
5454,2379,"Garlands",18.05,-76.983
5455,2377,"Golden Spring",18.1,-76.8
5456,2377,"Gordon Town",18.033,-76.717
5457,2379,"Goshen",17.95,-76.917
5458,2385,"Grange Hill",18.3,-78.183
5459,2379,"Gregory Park",17.983,-76.883
5460,2381,"Guilsbro",18.417,-77.8
5461,2377,"Half Way Tree",18,-76.8
5462,2383,"Harbour Head",17.9,-76.317
5465,2379,"Highgate",18.083,-76.95
5466,2380,"Hopeton",17.967,-77.667
5469,2379,"Innswood",17.983,-77.033
5471,2386,"Johns Hall",18.1,-76.45
5472,2373,"Kellits",18.15,-77.233
5473,2375,"Kendal",18.083,-77.483
5474,2380,"Kensington",17.9,-77.65
5475,2374,"Lethe",18.4,-77.967
5476,2381,"Lima",18.45,-77.783
5477,2373,"Lime Hall",18.067,-77.2
5478,2379,"Linstead",18.133,-77.033
5479,2373,"Lionel Town",17.8,-77.233
5480,2381,"Lottery",18.417,-77.817
5481,2374,"Lucea",18.45,-78.167
5482,2378,"Lydford",18.317,-77.15
5483,2375,"Mandeville",18.033,-77.5
5485,2379,"Marlie Mount",17.95,-77.117
5486,2381,"Maroon Town",18.35,-77.8
5487,2373,"May Pen",17.967,-77.233
5489,2380,"Middle Quarters",18.1,-77.833
5490,2373,"Milk River Bath",17.85,-77.367
5491,2377,"Mocho",18.017,-76.65
5492,2378,"Moneague",18.267,-77.117
5493,2377,"Montpelier",18.15,-76.817
5494,2381,"Mount Carey",18.4,-77.95
5495,2379,"Naggo Head",17.95,-76.9
5496,2380,"Nain",17.967,-77.6
5497,2385,"Negril",18.267,-78.35
5499,2379,"Old Harbour",17.933,-77.117
5500,2373,"Palmers",17.933,-77.217
5501,2379,"Passage Fort",17.983,-76.867
5502,2381,"Point",18.35,-77.817
5503,2377,"Port Maria",18.367,-76.9
5504,2379,"Portmore",17.967,-76.867
5505,2375,"Porus",18.033,-77.417
5506,2373,"Race Course",17.833,-77.283
5507,2381,"Reading",18.45,-77.95
5508,2379,"Rest",18.017,-77.033
5509,2373,"Rhymesbury",17.933,-77.317
5510,2384,"Rio Bueno",18.467,-77.467
5511,2374,"Salt Spring",18.383,-78.267
5512,2385,"Seven Rivers",18.333,-77.917
5513,2374,"Shettlewood",18.35,-77.95
5515,2381,"Somerton",18.433,-77.783
5517,2379,"Spanish Town",17.983,-76.95
5518,2381,"Spot Valley",18.5,-77.783
5519,2381,"Spring Mount",18.383,-77.85
5521,2384,"Spring Vale",18.383,-77.767
5522,2379,"Spring Village",17.967,-77.067
5523,2379,"Springfield",17.983,-77.067
5524,2375,"Spur Tree",18.017,-77.567
5529,2379,"Stanberry Grove",18.067,-76.95
5531,2377,"Stony Hill",18.083,-76.8
5533,2381,"Unity Hall",18.433,-77.983
5537,2381,"Wiltshire",18.417,-77.95
5539,1267,"Battambang",13.1,103.2
5542,1268,"Kampong Cham",12,105.45
5543,1271,"Kampong Thom",12.7,104.9
5544,1268,"Kampot",12.117,104.967
5545,1270,"Kandal",11.417,104.183
5547,1275,"Kratie",12.483,106.017
5550,1280,"Prey Veng",11.483,105.317
5551,1278,"Pursat",12.533,103.917
5553,1287,"Siem Reap",13.367,103.85
5555,1283,"Stung Treng",13.517,105.967
5556,1284,"Svay Rieng",11.083,105.8
5557,1285,"Takeo",10.983,104.783
5559,5369,"Saipan",16,145.5
5561,3292,"Aguadulce",8.25,-80.55
5562,3291,"Alanje",8.4,-82.55
5564,3291,"Bambito",8.833,-82.617
5567,3290,"Bocas Del Toro",9.333,-82.25
5568,3299,"Boquete",7.872,-81.451
5569,3291,"Cerro Punta",8.85,-82.567
5570,3290,"Changuinola",9.433,-82.517
5571,3291,"Chiriqui",8.4,-82.317
5572,3299,"Chitre",7.967,-80.433
5573,3292,"Cocle",8.45,-80.433
5574,3298,"Concepcion",9.133,-77.933
5576,3291,"Dolega",8.567,-82.417
5578,3291,"El Varital",8.433,-82.417
5579,3291,"Gualaca",8.533,-82.3
5581,3291,"La Primavera",8.65,-82.733
5583,3296,"Las Tablas",7.767,-80.283
5584,3296,"Loma Colorada",7.767,-80.5
5585,3296,"Los Santos",7.933,-80.417
5588,3296,"Pedregal",7.3,-80.433
5589,3292,"Penonome",8.517,-80.367
5590,3291,"Puerto Armuelles",8.283,-82.867
5591,3291,"Remedios",8.233,-81.85
5592,3299,"San Cristobal",8.017,-81.067
5593,3291,"San Lorenzo",8.3,-82.1
5594,3291,"San Mateo",8.433,-82.45
5595,3292,"San Pablo",8.633,-80.583
5596,3291,"Santa Cruz",8.233,-81.917
5597,3299,"Santiago",8.1,-80.983
5601,3299,"Veraguas",8.867,-80.9
5603,3291,"Volcan",8.767,-82.633
5604,3191,"Aplao",-16.076,-72.494
5605,3191,"Camana",-16.623,-72.711
5606,3191,"Cayma",-16.387,-71.553
5608,3202,"Collique",-11.917,-77.05
5609,3202,"Magdalena",-12.083,-77.067
5610,3191,"Sabandia",-16.467,-71.5
5611,3191,"Socabaya",-16.467,-71.528
5612,3195,"Yanahuara",-14.396,-71.492
5613,3218,"Abbottabad",34.15,73.217
5614,3218,"Attock",33.894,72.241
5615,3219,"Burewala",30.15,72.683
5617,3221,"Kamoki",32.417,73.833
5618,3219,"Khewra",32.65,73.017
5619,3218,"Mardan",34.2,72.033
5620,3221,"Mirpur",33.183,73.767
5622,3222,"Rahimyar Khan",28.417,70.3
5624,3174,"Capiata",-25.35,-57.417
5625,3170,"Ciudad Del Este",-25.517,-54.617
5626,3174,"Fernando De La Mora",-25.317,-57.6
5627,3174,"Lambare",-25.35,-57.65
5628,3174,"Limpio",-25.183,-57.533
5629,3174,"Luque",-25.267,-57.567
5631,3174,"Mariano Roque Alonso",-25.167,-57.55
5632,3182,"San Lorenzo",-24.433,-57.617
5633,3174,"Villa Elisa",-25.367,-57.617
5634,4542,"Acarigua",11.05,-63.917
5635,4528,"Achaguas",7.767,-68.233
5636,4543,"Agua Blanca",9.661,-69.11
5637,4537,"Altagracia De Orituco",9.86,-66.382
5638,4536,"Amuay",11.776,-70.239
5639,4527,"Anaco",9.438,-64.473
5640,4545,"Apartaderos",7.8,-72.383
5641,4543,"Araure",9.567,-69.217
5642,4548,"Bachaquero",10.262,-66.689
5643,4530,"Barinas",8.633,-70.2
5644,4529,"Bejuma",10.178,-68.257
5645,4546,"Bocono",8.488,-71.919
5646,4528,"Bruzual",8.05,-69.317
5647,4538,"Cabudare",10.027,-69.259
5648,4537,"Calabozo",8.933,-67.433
5649,4529,"Camatagua",9.8,-66.917
5651,4526,"Capacho",9.703,-63.955
5652,5061,"Caraballeda",10.617,-66.833
5653,4541,"Caripe",10.2,-63.483
5654,4538,"Carora",10.183,-70.083
5655,4541,"Carrizales",9.989,-63.216
5656,4544,"Carupano",10.67,-63.249
5657,4540,"Catia La Mar",10.6,-67.033
5658,4540,"Charallave",10.248,-66.857
5660,4547,"Chivacoa",10.16,-68.895
5661,4548,"Ciudad Ojeda",10.2,-71.317
5662,4548,"Colon",8.038,-72.252
5663,4535,"Coro",11.409,-69.667
5664,4540,"Cua",10.162,-66.885
5665,4536,"Cumarebo",11.489,-69.351
5666,4539,"Ejido",8.551,-71.238
5667,4531,"El Callao",10.294,-69.242
5668,4533,"El Junquito",9.715,-68.549
5669,4527,"El Palito",8.833,-63.45
5670,4537,"El Sombrero",9.383,-67.05
5672,4527,"El Tigrito",8.893,-64.159
5673,4538,"El Tocuyo",9.789,-69.792
5674,4536,"El Vigia",11.933,-69.967
5675,4528,"Elorza",7.066,-69.496
5676,4543,"Guanare",9.05,-69.75
5677,4528,"Guasdualito",7.244,-70.731
5680,4536,"Judibana",11.768,-70.193
5681,4541,"La Asuncion",10.064,-63.092
5682,4545,"La Fria",8.219,-72.249
5683,5061,"La Guaira",9.183,-71.167
5684,4548,"Lagunillas",7.787,-72.249
5685,4530,"Las Morochas",7.917,-68.817
5686,4542,"Las Piedras",10.431,-70.04
5688,4548,"Machiques",10.064,-72.545
5689,5061,"Macuto",10.617,-66.883
5690,5061,"Maiquetia",10.6,-66.95
5691,4528,"Mantecal",9.403,-63.783
5692,4539,"Merida",8.598,-71.145
5693,4545,"Michelena",7.959,-72.241
5694,4539,"Mucuchies",8.754,-70.921
5695,4540,"Ocumare Del Tuy",10.122,-66.772
5696,4542,"Pampatar",11,-63.8
5697,5061,"Piedra Azul",9.767,-67.367
5698,4536,"Piritu",11.374,-69.137
5699,4542,"Porlamar",10.95,-63.85
5700,4526,"Puerto Ayacucho",5.664,-67.624
5701,4536,"Puerto Escondido",11.37,-69.25
5702,4531,"Puertp Ordaz",8.298,-62.719
5703,4527,"Puerto Piritu",10.067,-65.05
5704,4536,"Punta Cardon",11.658,-70.215
5705,4541,"Punta de Mata",9.698,-63.609
5706,4544,"Punta de Piedras",10.546,-62.405
5707,4540,"Punto Fijo",10.467,-66.75
5708,4538,"Quibor",9.929,-69.62
5709,4545,"Rubio",7.707,-72.354
5710,4546,"San Antonio",9.676,-66.045
5711,4545,"San Antonio Del Tachira",7.818,-72.443
5712,4526,"San Carlos",1.917,-67.067
5713,4529,"San Casimiro",10,-67.017
5714,4545,"San Cristobal",7.767,-72.225
5715,4532,"San Diego",9.05,-67.3
5716,4547,"San Felipe",7.349,-66.231
5717,4545,"San Felix",8.118,-72.255
5718,4528,"San Fernando",11.066,-70.192
5719,4528,"San Fernando de Apure",7.894,-67.473
5720,4529,"San Juan de Los Morros",9.917,-67.35
5721,4527,"San Mateo",10.808,-69.127
5722,4529,"San Sebastian",9.95,-67.183
5723,4526,"Santa Barbara",7.406,-66.064
5724,4548,"Santa Rita",9.582,-64.293
5725,4530,"Santa Rosa",1.442,-66.904
5727,4548,"Tamare",10.2,-71.35
5728,4545,"Tariba",7.824,-72.221
5730,4548,"Tia Juana",10.267,-71.367
5731,4533,"Tinaquillo",9.919,-68.305
5732,4544,"Tocuyito",10.685,-63.115
5733,4546,"Trujillo",10.205,-66.212
5734,4534,"Tucupita",9.069,-62.049
5735,4544,"Turen",9.333,-69.121
5736,4526,"Turmero",9.7,-65.333
5737,4531,"Upata",8.009,-62.399
5738,4545,"Urena",7.92,-72.45
5739,4546,"Valera",9.317,-70.617
5740,4537,"Valle De La Pascua",9.217,-66
5741,4547,"Yaritagua",10.08,-69.126
5742,4537,"Zaraza",9.35,-65.317
5743,4054,"Biche",10.433,-61.133
5744,4058,"Blanchisseuse",10.783,-61.3
5745,4058,"Brasso Seco Village",10.733,-61.267
5746,4056,"Caigual",10.55,-61.067
5747,4056,"Carmichael",10.483,-61.2
5749,4061,"Charlotteville",11.317,-60.55
5750,4052,"Charuma",10.4,-61.15
5751,4056,"Cheeyou",10.55,-61.133
5752,4052,"Coryal",10.483,-61.433
5753,4054,"Cuche",10.367,-61.167
5754,4056,"Cunaripa",10.55,-61.167
5755,4059,"Erin",10.067,-61.667
5756,4054,"Fonrose",10.283,-61.233
5757,4057,"Grande Riviere",10.833,-61.05
5758,4056,"Guaico Tamana",10.483,-61.15
5759,4056,"Hasnalli",10.567,-61.2
5760,4056,"Howson",10.517,-61.183
5761,4058,"Las Cuevas",10.783,-61.383
5762,4056,"Lower Fishing Pond",10.567,-61.033
5763,4056,"Mamon",10.467,-61.15
5764,4058,"Maracas Bay Village",10.75,-61.433
5765,4057,"Matelot",10.817,-61.117
5766,4056,"Matura",10.667,-61.067
5767,4062,"Mayo",10.35,-61.383
5768,4057,"Monte Video",10.817,-61.033
5769,4062,"Moruga",10.083,-61.283
5770,4056,"Mount Harris",10.5,-61.117
5771,4054,"Navet",10.35,-61.167
5772,4056,"Nestor",10.517,-61.15
5774,4053,"Pierreville",10.3,-61.017
5775,4062,"Plaisance",10.233,-61.5
5776,4056,"Plum Mitan",10.45,-61.117
5777,4061,"Plymouth",11.217,-60.783
5779,4054,"Poole",10.3,-61.233
5780,4057,"Redhead",10.783,-60.95
5781,4061,"Roxborough",11.25,-60.583
5782,4053,"Rushville",10.117,-61.05
5783,4056,"Salybia",10.7,-61.033
5784,4057,"Sans Souci",10.833,-61
5785,4061,"Scarborough",11.183,-60.733
5786,4058,"Saint Joseph",10.65,-61.417
5788,4057,"Toco",10.833,-60.95
5789,4054,"Unis",10.317,-61.267
5790,4056,"Upper Fishing Pond",10.583,-61.05
5791,4056,"Upper Manzanilla",10.517,-61.067
5793,36,"Banff",51.167,-115.567
5794,36,"Calgary",51.083,-114.083
5795,36,"Cold Lake",54.26,-110.124
5796,36,"Coronation",52.083,-111.45
5797,36,"Fort Chipeyan",58.7144,-111.139
5798,36,"Fort McMurray",56.733,-111.383
5799,36,"Grande Prairie",55.167,-118.8
5800,36,"High Level",58.517,-117.133
5801,36,"Jasper",52.883,-118.083
5802,36,"Lac La Biche",54.767,-111.967
5803,36,"Lethbridge",49.7,-112.833
5804,36,"Lloydminster",53.28,-110
5805,36,"Medicine Hat",50.033,-110.683
5806,36,"Peace River",56.233,-117.283
5807,36,"Red Deer",52.267,-113.8
5808,36,"Rocky Mountain House",52.367,-114.917
5809,36,"Slave Lake",55.283,-114.783
5810,36,"Wainwright",52.833,-110.867
5811,36,"Whitecourt",54.133,-115.683
5812,43,"Abbotsford",49.05,-122.3
5813,43,"Atlin",59.583,-133.717
5814,43,"Campbell River",50.017,-125.25
5815,43,"Castlegar",49.317,-117.667
5816,43,"Comox",49.683,-124.933
5817,43,"Fort St John",56.25,-120.85
5818,43,"Kelowna",49.9,-119.483
5819,43,"Nanaimo",49.15,-123.917
5820,43,"Penticton",49.5,-119.583
5821,43,"Prince George",53.917,-122.767
5822,43,"Smithers",54.767,-127.167
5823,43,"Terrace",54.5,-128.583
5824,43,"Victoria",48.433,-123.35
5825,43,"Williams Lake",52.117,-122.15
5826,5392,"Bath",51.378,-2.366
5827,5392,"Benson",51.618,-1.112
5832,5392,"Chatham",51.361,0.535
5833,5392,"Derby",52.915,-1.472
5834,5392,"Dover",53.509,-2.581
5835,5392,"Exeter",50.722,-3.523
5836,5392,"Falmouth",50.151,-5.073
5837,5392,"Hull End",53.339,-1.917
5838,5392,"Ipswich",52.056,1.158
5840,5392,"Lincoln",53.231,-0.539
5844,5392,"Middlesbrough",54.559,-1.204
5845,5389,"Newcastle",51.853,-2.806
5847,5392,"Nottingham",52.968,-1.159
5848,5392,"Peterborough",52.58,-0.236
5850,5392,"Shrewsbury",52.707,-2.748
5851,5392,"Teeside",54.7833,-1.2333
5852,5392,"Waddington",53.887,-2.418
5853,5392,"Warrington",52.181,-0.691
5854,5392,"Wimbledon",51.428,-0.209
5855,38,"Churchill",58.767,-94.167
5856,38,"Dauphin",51.15,-100.05
5857,38,"Island Lake",53.967,-94.767
5858,38,"Pilot Mound",49.2,-98.9
5859,38,"Portage",49.967,-98.3
5860,38,"Steinbach",49.517,-96.683
5861,38,"Thompson",55.75,-97.867
5862,42,"Chatham",47.033,-65.433
5863,42,"Edmundston",47.367,-68.333
5864,42,"Saint Stephen",45.2,-67.267
5865,41,"Deer Lake",49.183,-57.433
5866,41,"Gander",48.95,-54.55
5867,41,"Goose Bay",53.333,-60.417
5869,41,"Wabush",52.917,-66.867
5870,46,"Inuvik",68.35,-133.7
5871,4996,"Iqaluit",63.733,-68.5
5873,39,"Amherst",45.833,-64.2
5874,39,"Bridgewater",44.367,-64.517
5875,39,"Digby",44.6,-65.75
5876,39,"Kentville",45.067,-64.5
5877,39,"New Glasgow",45.583,-62.633
5878,39,"Port Hawksbury",45.62,-61.35
5879,39,"Sydney",46.15,-60.167
5880,39,"Truro",45.367,-63.3
5881,39,"Yarmouth",43.833,-66.117
5882,37,"Antrim",43.667,-79.417
5883,37,"Arnprior",45.433,-76.367
5884,37,"Belleville",44.167,-77.383
5885,37,"Brantford",43.133,-80.267
5886,37,"Burk's Falls",45.62,-79.4
5887,37,"Cobalt",47.383,-79.683
5888,37,"Cornwall",45.017,-74.733
5889,37,"Deep River",46.167,-77.567
5890,37,"Dryden",49.783,-92.833
5891,37,"Eganville",45.533,-77.1
5892,37,"Grand Bend",43.317,-81.75
5893,37,"Hawkesbury",45.617,-74.6
5894,37,"Huntsville",45.333,-79.217
5895,37,"Kemptville",45.017,-75.633
5896,37,"Kenora",49.767,-94.467
5897,37,"Kirkland Lake",48.15,-80.033
5898,37,"Kitchener",43.45,-80.5
5899,37,"Lindsay",44.35,-78.733
5900,37,"London",42.983,-81.25
5901,37,"Maniwaki",46.367,-75.967
5902,37,"Mattawa",46.317,-78.7
5903,37,"Moosonee",51.267,-80.65
5904,37,"Niagara Falls",43.1,-79.05
5905,37,"North Bay",46.3,-79.45
5906,37,"Ottawa",45.417,-75.7
5907,37,"Pembroke",45.817,-77.117
5908,37,"Port Dover",42.783,-80.2
5909,37,"Port Stanley",42.667,-81.217
5910,37,"Powassan",46.067,-79.35
5911,37,"Renfrew",45.467,-76.683
5913,37,"South River",45.85,-79.367
5914,37,"St. Catharines",43.18,-79.24
5915,37,"Saint Thomas",42.783,-81.183
5916,37,"Sturgeon Falls",46.367,-79.933
5917,37,"Sudbury",46.5,-80.967
5919,37,"Timmins",48.467,-81.333
5920,37,"Trenton",44.1,-77.583
5921,37,"Upsula",49.05,-90.47
5922,37,"White River",48.583,-85.283
5923,37,"Whitney",45.5,-78.233
5924,37,"Windsor",42.333,-83.033
5925,45,"Summerside",46.4,-63.783
5926,35,"Bagotville",48.35,-70.883
5928,35,"Chibougamau",49.867,-74.35
5929,35,"Chicoutimi",48.45,-71.217
5930,35,"Hull",45.433,-75.733
5932,35,"Kuujjuaq",58.1,-68.4
5934,35,"La Tuque",47.45,-72.783
5935,35,"Mont-Joli",48.583,-68.183
5936,35,"Mont-laurier",46.55,-75.5
5938,35,"Saint-Jovite",46.12,-74.6
5939,35,"Sept-Iles",50.2,-66.383
5940,35,"Sherbrooke",45.4,-71.9
5941,35,"Temiscaming",46.717,-79.083
5942,35,"Thetford Mines",46.083,-71.3
5944,35,"Val-d'Or",48.1,-77.78
5945,40,"Moose Jaw",50.4,-105.55
5946,40,"Saskatoon",52.133,-106.667
5947,5390,"Aberdeen",57.15,-2.124
5948,5390,"Aviemore",57.19,-3.829
5949,5390,"Cladich",56.348,-5.083
5950,5390,"Glasgow",55.862,-4.245
5951,5390,"Hawick",55.431,-2.782
5952,5390,"Kirkwall",58.979,-2.948
5953,5390,"Loch Ness",57.647,-3.198
5954,5390,"Motherwell",55.786,-3.986
5955,5390,"St Andrews",56.338,-2.785
5956,5390,"Wick",58.439,-3.088
5957,5389,"Cardiff",51.481,-3.174
5958,5389,"Holyhead",53.31,-4.635
5959,5389,"Milford",52.505,-3.333
5960,5389,"Swansea",51.633,-3.958
5961,5389,"Wrexham",53.047,-2.992
5963,815,"Beaver Creek",62.38,-140.875
5964,815,"Burwash",61.35,-139
5965,815,"Carmacks",62.1,-136.317
5966,815,"Dawson City",64.067,-139.417
5967,815,"Faro",62.23,-133.33
5969,815,"Mayo",63.6,-135.917
5970,815,"Old Crow",67.567,-139.8
5971,815,"Ross River",61.983,-132.45
5972,815,"Snag",62.383,-140.367
5973,815,"Teslin",60.167,-132.7
5974,815,"Watson Lake",60.117,-128.8
5975,815,"Whitehorse",60.717,-135.05
5976,835,"Kabul",34.517,69.183
5977,1011,"Tirane",41.333,19.833
5978,856,"Algiers",36.763,3.051
5979,879,"Annaba",36.9,7.767
5980,861,"Oran",35.691,-0.642
5981,858,"Skikda",36.879,6.907
5982,1046,"Luanda",-7.05,14.817
5983,818,"Saint Johns",17.117,-61.85
5984,1066,"Bariloche",-41.15,-71.3
5985,1071,"Ceres",-29.883,-61.95
5986,1058,"Concordia",-31.4,-58.033
5987,1058,"Gualeguaychu",-33.01,-58.514
5988,1063,"Malarg",-35.467,-69.583
5989,1055,"Marcos Ju",-32.7,-62.1
5990,1063,"Mendoza",-32.883,-68.817
5991,1056,"Paso de los Libres",-29.717,-57.083
5992,1071,"Reconquista ",-29.15,-59.65
5993,1071,"Rosario",-32.951,-60.666
5994,1060,"San Rafael",-24.117,-64.4
5995,1072,"Santiago del Estero",-27.783,-64.267
5996,1054,"Trelew",-43.25,-65.3
5998,549,"Oranjestad",12.517,-70.033
5999,7,"Alice Springs",-23.7,133.883
6001,3,"Birdsville",-25.9,139.367
6002,3,"Boulia",-22.9,139.9
6003,3,"Bowen",-20.017,148.233
6004,6,"Broome",-17.967,122.233
6005,1,"Cape Otway",-38.85,143.517
6006,3,"Charleville",-26.4,146.25
6007,4,"Cobar",-31.5,145.817
6008,4,"Coffs Harbour",-30.3,153.133
6009,3,"Cunnamulla",-28.067,145.683
6010,1,"Sale",-38.1,147.067
6011,6,"Exmouth",-21.933,114.133
6012,2,"George Town",-41.1,146.833
6013,6,"Geraldton",-28.767,114.6
6015,3,"Gladstone",-23.85,151.25
6016,6,"Kalgoorlie",-30.75,121.467
6017,2,"Launceston",-41.45,147.167
6018,5,"Mount Gambier",-37.833,140.767
6019,3,"Mount Isa",-20.733,139.5
6021,4,"Nowra",-34.883,150.6
6022,5,"Oodnadatta",-27.55,135.467
6023,3,"Richmond",-20.717,143.133
6024,3,"Roma",-26.583,148.783
6025,2,"Strahan",-42.15,145.333
6026,7,"Tennant Creek",-19.65,134.2
6027,3,"Townsville",-19.25,146.8
6028,6,"Williamstown",-30.75,121.483
6030,1,"Wilsons Promontory",-38.65,146.183
6031,3,"Windorah",-25.433,142.65
6032,5,"Woomera",-31.5,137.167
6033,1081,"Innsbruck",47.267,11.4
6034,1083,"Vienna",48.2,16.367
6035,1085,"Al Manamah",26.236,50.583
6036,1162,"Dhaka",23.723,90.409
6037,1129,"Antwerp",51.217,4.417
6038,1136,"Gent",51.05,3.717
6039,1132,"Liege",50.633,5.567
6040,1165,"Belize City",17.483,-88.183
6041,1201,"Porto-Novo",6.483,2.617
6042,1119,"Hamilton",32.294,-64.784
6043,1125,"Somerset",32.298,-64.868
6044,1124,"Saint George",32.382,-64.678
6045,1174,"La Paz",-12.967,-67.017
6046,5116,"Sarajevo",43.85,18.383
6047,21,"Barra do Corda",-5.5,-45.25
6048,11,"Barreiras",-12.14,-45
6049,13,"Caravelas",-5.1,-41.85
6050,12,"Catal",-18.167,-47.95
6051,15,"Curitiba",-25.417,-49.25
6053,12,"Goi",-16.667,-49.267
6054,11,"Ilh",-13.017,-40.017
6055,13,"Parna",-2.909,-41.775
6056,24,"Pirapora",-23.4,-47
6057,25,"Porto Nacional",-10.7,-48.417
6059,34,"Santa Cruz",-6.22,-36.03
6060,1219,"Santar",-2.433,-54.7
6061,24,"Santos",-23.95,-46.333
6062,14,"Sobral",-3.7,-40.35
6063,33,"Tr",-20.8,-51.717
6064,27,"Uberaba",-19.76,-47.94
6065,1245,"Ruse",43.833,25.95
6066,1252,"Bujumbura",-3.377,29.358
6067,1277,"Phnom Penh",11.55,104.917
6068,1391,"Yaounde",3.867,11.517
6069,1380,"George Town",19.3,-81.383
6070,1445,"Bangui",4.3,17.45
6072,1351,"Abag Qi",44.018,114.956
6073,1340,"Aihui",50.267,127.467
6074,1353,"Akqi",40.833,78.017
6075,586,"Alar",0,0
6076,1345,"Altay",47.867,88.117
6077,1340,"Anda",46.4,125.317
6078,586,"Andir",0,0
6079,1357,"Ankang",32.686,109.018
6080,1333,"Anqing",30.509,117.051
6081,1348,"Anyang",22.053,107.097
6082,1345,"Arxan",43.1,84.667
6083,1345,"Bachu",39.767,78.25
6084,1350,"Baiang",0,0
6085,586,"Bailing-Miao",0,0
6086,1346,"Baingoin",31.75,89.833
6087,1345,"Balguntay",42.757,86.305
6088,1357,"Baoji",34.354,107.376
6089,1353,"Baoshan",26.664,107.201
6090,1358,"Barkam",31.85,102.467
6091,1351,"Bayan Mod",40.744,104.506
6092,1345,"Bayanbulak",43.083,84.083
6093,586,"Baytik Shan",0,0
6094,1349,"Bijie",27.313,105.294
6095,1333,"Bose",23.9,106.613
6096,1351,"Bugt",41.3,105.833
6097,586,"Chabgling",0,0
6098,1334,"Changbai",30.177,122.033
6099,1343,"Changde",29.033,111.683
6100,1339,"Changting",25.867,116.317
6101,1361,"Chaoyang",23.283,116.583
6102,1342,"Chengde",40.758,118.156
6103,586,"Chengshantou",0,0
6104,1361,"Chenzhou",25.8,113.033
6105,1351,"Chifeng",42.268,118.964
6106,1360,"Chuxiong",25.033,101.55
6107,586,"Da Xian",0,0
6108,586,"Dachen Dao",0,0
6109,1334,"Dali",29.428,121.313
6110,1362,"Danxian",19.517,109.55
6111,586,"Daocheng",0,0
6112,586,"Da-Qaidam",0,0
6113,1338,"Darlag",33.8,99.867
6115,1358,"Dawu",31,101.15
6116,586,"Dege",0,0
6117,1338,"Delingha",37.383,97.383
6118,1346,"Dengqen",31.533,95.433
6119,1346,"Deqen",29.667,91.35
6120,1334,"Dinghai",30.02,122.098
6121,1334,"Dongfang",28.385,121.539
6122,1361,"Dongsha Dao",0,0
6123,1334,"Dongsheng",28.424,121.557
6124,1338,"Dulan",36.167,98.267
6125,1337,"Dunhua",43.35,128.217
6126,1347,"Dunhuang",40.167,94.683
6127,1351,"Duolun",42.186,116.478
6128,1348,"Dushan",22.434,106.697
6129,1351,"Ejin Qi",41.965,101.064
6130,586,"Emei Shan",0,0
6131,1344,"Enshi",30.3,109.483
6132,1351,"Erenhot",43.648,111.977
6133,1344,"Fangxian",32.067,110.783
6134,1358,"Fengjie",31.05,109.517
6135,1342,"Fengning",41.2,116.533
6136,1361,"Fogang",23.867,113.517
6137,1339,"Fuding",27.327,120.212
6138,1340,"Fujin",47.267,132.017
6139,1358,"Fuyang",32.042,107.171
6140,1345,"Fuyun",47,89.467
6141,1338,"Gangca",37.267,100.267
6142,1347,"Ganzhou",38.933,100.45
6143,1333,"Gaoyao",34.067,116.667
6144,1358,"Garze",31.633,100.017
6145,1338,"Golmud",36.367,94.917
6146,1351,"Guaizihu",41.417,102.067
6147,1335,"Guangchang",26.833,116.267
6148,1360,"Guangnan",24.05,105.05
6149,1348,"Guiping",23.4,110.083
6150,1334,"Gushi",28.533,119.4
6151,1351,"Hailar",49.2,119.7
6152,1351,"Hails",41.399,106.405
6153,1334,"Haiyang",30.288,121.268
6154,586,"Haiyang Dao",0,0
6155,1351,"Haliut",41.556,108.52
6156,1345,"Hami",42.8,93.45
6157,1348,"Hechi",24.7,107.867
6158,1349,"Henan",34.7,101.6
6159,1355,"Hequ",39.383,111.133
6160,1361,"Heyuan",23.733,114.683
6161,1334,"Hezuo",30.091,120.651
6162,1345,"Hoboksar",46.783,85.717
6164,1345,"Hotan",37.117,79.917
6165,586,"Hua Shan",0,0
6166,1351,"Huade",41.888,113.991
6167,1356,"Huadian",36.8,116.65
6168,1342,"Huailai",40.417,115.45
6169,1347,"Huajialing",35.383,105.017
6170,1333,"Huang Shan",30.061,118.16
6171,1351,"Huhhot",0,0
6172,1358,"Huili",26.683,102.25
6173,1356,"Huimin",37.483,117.483
6174,1348,"Huize",26.35,103.417
6175,1340,"Hulin",45.8,132.983
6176,1340,"Huma",51.717,126.633
6177,1333,"Huoshan",31.409,116.326
6178,1351,"Jartai",39.75,105.75
6179,1351,"Jarud Qi",44.617,120.967
6180,586,"Jian",0,0
6181,586,"Jiangchen",0,0
6182,1344,"Jiangling",30.35,112.183
6183,1355,"Jiexiu",37.032,111.909
6184,1335,"Jingdezhen",29.29,117.202
6185,1336,"Jinghe",33.339,119.241
6186,1360,"Jinghong",21.983,100.817
6187,1356,"Jining",35.396,116.586
6188,1350,"Jinnzhou",41.118,121.142
6189,1358,"Jiulong",29.374,106.257
6190,1347,"Jiuquan",39.767,98.567
6191,586,"Jiuxian Shan",0,0
6192,1353,"Jixi",26.567,118.333
6193,1351,"Jurh",42.404,112.871
6194,586,"Kaba He",0,0
6195,1358,"Kangding",30.05,102.033
6196,1345,"Karamay",45.5,84.917
6197,1345,"Kashi",39.483,75.967
6198,1340,"Keshan",48.067,125.9
6199,1345,"Korla",41.762,86.142
6200,1350,"Kuandian",40.729,124.782
6201,1345,"Kuqa",41.717,82.9
6202,586,"Lan Yu",0,0
6203,1360,"Lancang",22.533,99.933
6204,1358,"Langzhong",31.583,105.967
6205,1347,"Lanzhou",36.056,103.792
6206,1338,"Lenghu",38.817,93.383
6207,1342,"Leting",39.433,118.933
6208,1352,"Lhasa",29.65,91.1
6209,1354,"Lhunze",28.4,92.333
6210,586,"Lian Xian",0,0
6211,1358,"Liangping",30.683,107.817
6212,1361,"Lianping",24.367,114.5
6214,1348,"Lijiang",22.145,107.181
6215,1360,"Lincang",23.9,100.033
6216,1348,"Lindong",25.417,109.033
6217,1343,"Lingling",26.233,111.617
6218,1358,"Linjiang",29.245,105.958
6219,1342,"Linxi",36.867,115.533
6220,1356,"Linyi",35.15,110.767
6221,1358,"Lishi",29.079,106.262
6222,1361,"Lishui",23.201,113.16
6223,1334,"Liyang",27.421,120.263
6224,1334,"Longkou",28.199,120.54
6225,1348,"Longzhou",22.348,106.858
6226,586,"Lu Shan",0,0
6227,1334,"Luodian",29.15,119.617
6228,1360,"Lushi",24.833,99.967
6229,1360,"Lusi",24.317,98.467
6230,1360,"Luxi",24.517,103.767
6231,1361,"Luzhou",23.383,114.583
6232,1344,"Macheng",31.178,115.032
6233,1333,"Madoi",35.033,96.383
6234,1351,"Mandal",42.522,110.113
6235,1338,"Mangnai",37.833,91.767
6236,586,"Mazong Shan",0,0
6237,1353,"Mazu",30.426,122.378
6238,1341,"Mengjin",34.833,112.433
6239,1334,"Mengla",21.467,101.583
6240,1348,"Mengshan",24.2,110.517
6241,1360,"Mengzi",23.362,103.406
6242,1344,"Mianyang",30.383,113.4
6243,1347,"Minqin",38.626,103.088
6244,1359,"Mohe",34.372,118.297
6245,1340,"Mudanjiang",44.583,129.6
6246,1353,"Nagqu",31.5,92
6247,1339,"Nancheng",25.633,118.383
6248,1334,"Nanchong",29.424,121.79
6249,1358,"Nanping",33.261,104.226
6250,1334,"Nanyang",28.867,121.418
6251,1334,"Nanyue",28.182,121.081
6252,586,"Nanzhong",0,0
6253,1360,"Napo",23.541,105.584
6254,1351,"Naran Bulag",41.367,106.4
6255,1336,"Neijiang",29.584,105.059
6256,1340,"Nenjiang",49.183,125.217
6257,1346,"Nyingchi",29.533,94.417
6258,1351,"Otog Qi",39.093,107.986
6259,1346,"Pagri",27.75,89.167
6260,586,"Pengjia Yu",0,0
6261,1349,"Pingliang",26.77,107.818
6262,1339,"Pingtan",25.517,119.783
6263,1358,"Pingwu",32.406,104.523
6264,1353,"Pishan",37.633,78.317
6265,1353,"Pucheng",42.744,129.343
6266,1346,"Qamdo",31.167,97.233
6267,1337,"Qian Gorlos",45.133,124.8
6268,1345,"Qijiaojing",43.467,91.6
6269,1335,"Qingjiang",28.083,115.517
6270,1360,"Qinglong",23.756,102.031
6271,1342,"Qingyuan",38.753,115.489
6272,1348,"Qinzhou",21.95,108.617
6273,1362,"Qionghai",19.25,110.433
6274,1340,"Qiqihar",47.353,124.003
6275,1345,"Qitai",44.017,89.467
6276,1358,"Quzian",30.833,106.9
6277,586,"Qumarleb",0,0
6278,1356,"Rizhao",35.419,119.446
6279,1335,"Rongjiang",25.667,114.75
6280,1349,"Ruili",26.227,108.497
6281,586,"Ruo'Ergai",0,0
6282,1345,"Ruoqiang",39.033,88
6283,1343,"Sangzhi",29.4,110.15
6284,586,"Sanhu Dao",0,0
6285,1349,"Sansui",28.727,107.121
6286,586,"Sertar",0,0
6287,1363,"Shache",38.4,77.25
6288,586,"Shangchuan Dao",0,0
6289,1347,"Shangzhi",45.217,127.967
6290,1362,"Shanwei",19.961,110.583
6291,1353,"Shaoguan",24.8,113.583
6292,1339,"Shaowu",27.3,117.5
6293,1343,"Shaoyang",27,111.2
6294,1334,"Shengsi",30.724,122.451
6295,1334,"Shengxian",29.6,120.8
6296,1353,"Shipu",29.214,121.943
6297,1346,"Shiquanhe",32.517,80.067
6298,586,"Simaoi",0,0
6299,1349,"Sinan",27.943,108.24
6300,1349,"Siping",26.9,107.883
6301,1353,"Sog Xian",0,0
6302,1347,"Songpan",32.6,103.6
6303,1340,"Suifenhe",44.4,131.167
6304,1340,"Sunwu",49.417,127.367
6305,1360,"Tacheng",27.6,99.467
6306,586,"Tai Shan",0,0
6307,1340,"Tailai",46.383,123.4
6308,1353,"Taiyuan",30.708,118.4
6309,1334,"Tangshan",28.179,120.648
6310,1360,"Tengchong",25.033,98.467
6311,1359,"Tianmu Shan",0,0
6312,1347,"Tianshui",34.584,105.718
6313,1345,"Tikanlik",40.649,87.803
6314,1346,"Tingri",28.633,87.083
6315,1343,"Tongdao",26.163,109.775
6316,1338,"Tongde",35.267,100.533
6317,1359,"Tonghe",23.8,110.583
6318,1351,"Tongliao",43.617,122.267
6319,1351,"Tulihe",50.483,121.717
6320,586,"Tuotouhe",0,0
6321,1345,"Turpan",42.933,89.167
6322,1351,"Uliastai",45.55,116.833
6323,1345,"Urumqi",43.8,87.583
6324,1358,"Wanyuan",32.073,108.043
6325,1347,"Weichang",41.933,117.567
6326,1356,"Weifang",36.71,119.102
6327,1349,"Weining",26.85,104.233
6328,586,"Wudaoling",0,0
6329,1334,"Wudu",28.908,121.51
6330,1341,"Wugang",33.296,113.521
6331,586,"Wushaoling",0,0
6332,586,"Wutai Shan",0,0
6333,1348,"Wuzhou",23.483,111.317
6334,1346,"Xainza",30.933,88.633
6335,1355,"Xi ujimqin Qi",44.533,117.667
6336,1357,"Xian",34.26,108.936
6337,1348,"Xichang",21.633,108.95
6338,1347,"Xifengzhen",35.735,107.634
6339,1353,"Xigaze",29.25,88.883
6340,1351,"Xilin Hot",43.967,116.033
6341,1351,"Xin Barag Youqi",48.667,116.833
6342,1348,"Xingren",23.562,108.926
6343,1342,"Xingtai",37.064,114.497
6344,1338,"Xining",28.55,103.567
6345,1355,"Xinxian",38.408,112.729
6346,1348,"Xinyang",22.172,107.484
6347,1357,"Xinyi",34.567,109.6
6348,1362,"Xisha Dao",0,0
6349,1335,"Xiushui",29.033,114.567
6350,1347,"Xunwu",24.95,115.467
6351,586,"Ya'an",0,0
6352,1360,"Yanan",0,0
6353,1357,"Yanchi",33.683,109.633
6354,1336,"Yangcheng",34.668,110.423
6355,1334,"Yangjiang",28.428,121.341
6356,1344,"Yanji",30.4,114.983
6357,1339,"Yanzhou",27.237,120.26
6358,586,"Yaxian",0,0
6359,1358,"Yibin",28.767,104.567
6360,1335,"Yichun",27.833,114.4
6361,586,"Yihu",0,0
6362,1353,"Yinchuan",38.468,106.273
6363,1335,"Yining",29.033,114.567
6364,1356,"Yiyuan",36.181,118.155
6365,586,"Yongan",0,0
6366,1358,"Youyang",28.867,108.75
6367,586,"Yu Xian",0,0
6368,1343,"Yuanjiang",28.833,112.383
6369,1343,"Yuanling",28.45,110.383
6370,1360,"Yuanmou",25.7,101.867
6371,1355,"Yuanping",38.728,112.712
6372,1342,"Yulin",40.718,114.955
6373,1347,"Yumenzhen",40.283,97.2
6374,1355,"Yuncheng",35.017,110.983
6375,1349,"Yushe",26.5,104.767
6376,1338,"Zadoi",33.8,96.733
6377,1344,"Zaoyang",32.129,112.758
6378,1342,"Zhangjiakou",40.811,114.876
6379,1334,"Zhangwu",30.78,119.544
6380,1347,"Zhangye",38.933,100.45
6381,1361,"Zhanjiang",21.2,110.383
6382,1360,"Zhanyi",25.6,103.817
6383,1360,"Zhaotong",27.317,103.717
6384,1343,"Zhijiang",27.45,109.683
6385,1352,"Zhongning",37.494,105.667
6386,1344,"Zhongxiang",31.167,112.583
6387,1341,"Zhumadian",32.979,114.029
6388,586,"Ziao'ergou",0,0
6389,586,"Zihua",0,0
6390,1349,"Zunyi",27.687,106.907
6391,1343,"Zuzhou",0,0
6392,5027,"Dubrovnik",42.651,18.091
6393,1457,"Havana",23.132,-82.364
6394,1486,"Nicosia",35.167,33.367
6395,5129,"Ostrava",49.833,18.283
6398,1511,"Roseau",15.3,-61.4
6399,1534,"Puerto Plata",19.7789,-70.7053
6400,1653,"San Salvador",13.7,-89.2
6401,1629,"Tallinn",59.434,24.728
6402,1696,"Addis Ababa",9.033,38.7
6403,4879,"Helsinki",60.176,24.934
6404,5023,"Turku",60.45,22.283
6406,1808,"Lille",50.633,3.067
6407,1807,"Lourdes",43.1,-0.05
6408,1812,"Marseille",43.3,5.4
6409,1803,"Paris",48.8542,2.34486
6410,1799,"Reims",48.717,4.667
6412,1813,"Val-d'Isere",45.4475,6.9792
6413,5383,"Cayenne",4.933,-52.333
6414,1821,"Libreville",0.383,9.45
6415,1918,"Bochum",51.483,7.217
6416,1918,"Bonn",50.733,7.1
6417,1918,"Dusseldorf",51.217,6.767
6418,1918,"Essen",51.45,7.017
6419,1916,"Frankfurt",50.117,8.683
6420,1917,"Hannover",52.367,9.717
6421,1912,"Heidelberg",48.317,8.917
6422,1916,"Kassel",50.2,9.283
6423,1913,"N",49.4542,11.0746
6424,1972,"Irakleion",35.333,25.133
6425,1952,"Kerkira",39.62,19.92
6426,1948,"Larisa",39.633,22.417
6427,632,"Limnos",38.717,23.75
6428,1976,"Myconos",37.4333,25.3333
6429,1965,"Patrai",38.25,21.733
6430,1974,"Rhodes",36.4379,28.2357
6431,1962,"Sparta",37.083,22.433
6433,636,"Agana",13.4742,144.748
6434,2050,"Choluteca",13.783,-88.4
6435,2052,"Comayagua",14.4394,-87.6361
6436,2059,"La Ceiba",13.117,-86.983
6437,2053,"Santa Rosa",14.767,-88.783
6438,2091,"Gyor",47.683,17.633
6439,2070,"Miskolc",48.1,20.783
6440,2107,"Akureyri",65.667,-18.1
6441,2125,"Egilsstadir",65.2667,-14.4167
6444,2142,"Kirkjubaejarklaustur",63.783,-18.067
6445,2126,"Raufarhofn",66.45,-15.95
6446,2111,"Saudarkrokur",65.75,-19.6666
6447,2128,"Vestmannaeyjar",63.365,-20.208
6448,2175,"Ahmedabad",23.033,72.617
6449,2189,"Amritsar",31.583,74.883
6450,2181,"Bhopal",23.267,77.4
6451,2187,"Bhubaneshwar",20.233,85.833
6452,2194,"Calcutta",22.533,88.367
6453,2169,"Hyderabad",17.391,78.4712
6454,2193,"Kanpur",26.4502,80.3329
6455,2193,"Lucknow",26.8513,80.916
6456,2189,"Ludhiana",30.9058,75.8463
6457,2182,"Mumbai",19.0158,72.8599
6458,2182,"Nagpur",21.1481,79.1244
6460,2178,"Srinagar",34.0836,74.8047
6461,2179,"Trivandrum",8.51189,76.9449
6462,2145,"Bali",-6.117,106.983
6463,2154,"Balikpapan",-1.283,116.833
6464,2165,"Palembang",-2.917,104.75
6465,2148,"Semarang",-6.967,110.417
6466,2213,"Ahvaz",32.968,60.311
6467,2227,"Mashhad",32.724,50.521
6468,2230,"Tabriz",38.08,46.292
6469,2314,"Baghdad",33.339,44.394
6470,2309,"Basra",30.494,47.819
6471,5391,"Armagh",54.35,-6.667
6472,1611,"Bangor",54.15,-9.75
6474,5391,"Omagh",54.5989,-7.30309
6475,1598,"Shannon",52.704,-8.864
6476,2237,"Jerusalem",31.767,35.233
6477,2254,"Bolzano",46.517,11.367
6478,2251,"Cagliari",39.217,9.117
6479,2246,"Como",45.783,9.083
6481,2249,"Novara",45.467,8.633
6482,2257,"Padova",45.417,11.883
6483,2252,"Palermo",38.117,13.367
6484,2243,"Trieste",45.649,13.78
6485,2249,"Turin",45.05,7.667
6486,2257,"Venice",45.439,12.327
6489,2333,"Aikawa",36.083,136.033
6490,2337,"Akita",44.067,144.25
6491,2328,"Aomori",40.817,140.75
6493,2352,"Fukue",32.7,128.85
6494,659,"Hachijojima",43.9,143.9
6495,2337,"Hakodate",41.75,140.717
6496,2361,"Hamada",34.283,132.517
6498,2361,"Izuhara",34.2,129.283
6499,2326,"Kanoya",31.383,130.85
6500,2329,"Komatsu",33.883,133.117
6501,2337,"Kushiro",34.8,135.417
6502,2335,"Maebashi",36.383,139.067
6503,2347,"Maizuru",35.45,135.333
6504,2361,"Matsue",34.25,135.133
6508,2333,"Miyako",37.567,139.85
6509,2359,"Miyakojima",36.25,139.183
6511,2343,"Naze",28.367,129.483
6512,2355,"Oita",33.233,131.6
6513,2372,"Okinawa",26.338,127.803
6515,2339,"Onahama",36.95,140.9
6516,2352,"Oshima",33.939,132.192
6517,2348,"Owase",34.067,136.2
6518,2361,"Saigo",36.2,133.333
6520,2357,"Suttsu",42.8,140.233
6521,2348,"Suzuka",34.883,136.583
6523,2366,"Tottori",43.4,143.817
6524,2337,"Urakawa",42.15,142.783
6525,2340,"Wajima",37.4,136.9
6526,2352,"Wakamatsu",35.7,139.717
6527,2337,"Wakkanai",45.417,141.667
6528,2357,"Yokota",35.183,133.083
6529,2455,"Karaganda",49.88,73.16
6530,2397,"Embu",-0.533,37.45
6531,2401,"Kitale",1.017,35
6532,2417,"P'yongyang",39.0103,125.77
6533,2439,"Kuwait",29.37,47.978
6534,2484,"Beirut",33.872,35.51
6535,2483,"Tripoli",34.433,35.85
6536,2674,"Tripoli",32.893,13.18
6537,2572,"Vilnius",54.683,25.317
6538,2625,"Luxembourg",49.612,6.13
6539,2897,"Johor Baharu",1.467,103.75
6540,2911,"Kota Kinabalu",5.983,116.067
6542,2900,"Malacca",2.197,102.248
6543,2906,"Miri",4.383,113.983
6544,2905,"Penang",5.417,100.333
6545,689,"Valletta",35.9,14.515
6546,5376,"Fort-De-France",14.6094,-61.0531
6547,2890,"Apatzingan",19.083,-102.35
6548,73,"Baja San Quintin",30.483,-115.95
6550,2887,"Ciudad Acuna",29.3,-100.917
6551,2886,"Ciudad Del Carmen",18.633,-91.833
6552,59,"Ciudad Guzman",19.683,-103.483
6553,70,"Ciudad Madero",22.267,-97.833
6554,72,"Cozumel",20.508,-86.946
